{
"type": "FeatureCollection",
"crs": { "type": "name", "properties": { "name": "urn:ogc:def:crs:OGC:1.3:CRS84" } },
"features": [
{ "type": "Feature", "properties": { "DISTRICT": 4, "WEBSITE": "https:\/\/www.escondido.org\/city-council.aspx", "CODE": "ES", "JUR_NAME": "ESCONDIDO", "NAME": "Michael Morasco", "PHONE": "(760) 839-4638", "Shape_STAr": 286388728.05199999, "Shape_STLe": 239084.951974 }, "geometry": { "type": "Point", "coordinates": [ -117.083402845028488, 33.091214019324291 ] } },
{ "type": "Feature", "properties": { "DISTRICT": 2, "WEBSITE": "https:\/\/www.escondido.org\/city-council.aspx", "CODE": "ES", "JUR_NAME": "ESCONDIDO", "NAME": "Tina Inscoe", "PHONE": "(760) 839-4638", "Shape_STAr": 493572466.83600003, "Shape_STLe": 303649.76733 }, "geometry": { "type": "Point", "coordinates": [ -117.079954282765044, 33.161312109146891 ] } },
{ "type": "Feature", "properties": { "DISTRICT": 1, "WEBSITE": "https:\/\/www.escondido.org\/city-council.aspx", "CODE": "ES", "JUR_NAME": "ESCONDIDO", "NAME": "Consuelo Martinez", "PHONE": "(760) 839-4638", "Shape_STAr": 68952038.162599996, "Shape_STLe": 40508.468050700001 }, "geometry": { "type": "Point", "coordinates": [ -117.070770329380395, 33.13914966165455 ] } },
{ "type": "Feature", "properties": { "DISTRICT": 3, "WEBSITE": "https:\/\/www.escondido.org\/city-council.aspx", "CODE": "ES", "JUR_NAME": "ESCONDIDO", "NAME": "Joe Garcia", "PHONE": "(760) 839-4638", "Shape_STAr": 190140259.794, "Shape_STLe": 109931.00374299999 }, "geometry": { "type": "Point", "coordinates": [ -117.035308826957618, 33.129870903405696 ] } },
{ "type": "Feature", "properties": { "DISTRICT": 1, "WEBSITE": "https:\/\/www.san-marcos.net\/departments\/city-clerk\/city-council", "CODE": "SM", "JUR_NAME": "SAN MARCOS", "NAME": "Maria Nunez", "PHONE": "(760) 744-1050", "Shape_STAr": 99620567.241600007, "Shape_STLe": 72568.226265200006 }, "geometry": { "type": "Point", "coordinates": [ -117.176565507933333, 33.146245385921766 ] } },
{ "type": "Feature", "properties": { "DISTRICT": 4, "WEBSITE": "https:\/\/www.san-marcos.net\/departments\/city-clerk\/city-council", "CODE": "SM", "JUR_NAME": "SAN MARCOS", "NAME": "Ed Musgrove", "PHONE": "(760) 744-1050", "Shape_STAr": 174054611.18599999, "Shape_STLe": 100738.442001 }, "geometry": { "type": "Point", "coordinates": [ -117.163217470670148, 33.162550258514564 ] } },
{ "type": "Feature", "properties": { "DISTRICT": 3, "WEBSITE": "https:\/\/www.san-marcos.net\/departments\/city-clerk\/city-council", "CODE": "SM", "JUR_NAME": "SAN MARCOS", "NAME": "Sharon Jenkins", "PHONE": "(760) 744-1050", "Shape_STAr": 182099451.83899999, "Shape_STLe": 99547.165912800003 }, "geometry": { "type": "Point", "coordinates": [ -117.158840805121244, 33.132256052476798 ] } },
{ "type": "Feature", "properties": { "DISTRICT": 2, "WEBSITE": "https:\/\/www.san-marcos.net\/departments\/city-clerk\/city-council", "CODE": "SM", "JUR_NAME": "SAN MARCOS", "NAME": "Randy Walton", "PHONE": "(760) 744-1050", "Shape_STAr": 222737583.63100001, "Shape_STLe": 129782.32443 }, "geometry": { "type": "Point", "coordinates": [ -117.19439242808734, 33.11060643463027 ] } },
{ "type": "Feature", "properties": { "DISTRICT": 1, "WEBSITE": "https:\/\/www.cityofelcajon.us\/your-government\/elected-officials\/city-council", "CODE": "EC", "JUR_NAME": "EL CAJON", "NAME": "Gary Kendrick", "PHONE": "(619) 441-1788", "Shape_STAr": 200786899.965, "Shape_STLe": 98943.202921699994 }, "geometry": { "type": "Point", "coordinates": [ -116.982654666719611, 32.80615673139387 ] } },
{ "type": "Feature", "properties": { "DISTRICT": 4, "WEBSITE": "https:\/\/www.cityofelcajon.us\/your-government\/elected-officials\/city-council", "CODE": "EC", "JUR_NAME": "EL CAJON", "NAME": "Phil Ortiz", "PHONE": "(619) 441-1788", "Shape_STAr": 51901224.2958, "Shape_STLe": 53545.953051999997 }, "geometry": { "type": "Point", "coordinates": [ -116.954088629301509, 32.784730098758835 ] } },
{ "type": "Feature", "properties": { "DISTRICT": 2, "WEBSITE": "https:\/\/www.cityofelcajon.us\/your-government\/elected-officials\/city-council", "CODE": "EC", "JUR_NAME": "EL CAJON", "NAME": "Michelle Metschel", "PHONE": "(619) 441-1788", "Shape_STAr": 57415734.487000003, "Shape_STLe": 61115.598893000002 }, "geometry": { "type": "Point", "coordinates": [ -116.950737941584279, 32.803391076401411 ] } },
{ "type": "Feature", "properties": { "DISTRICT": 3, "WEBSITE": "https:\/\/www.cityofelcajon.us\/your-government\/elected-officials\/city-council", "CODE": "EC", "JUR_NAME": "EL CAJON", "NAME": "Steve Goble", "PHONE": "(619) 441-1788", "Shape_STAr": 95111068.971599996, "Shape_STLe": 108208.39834 }, "geometry": { "type": "Point", "coordinates": [ -116.922855364801549, 32.800423179245499 ] } },
{ "type": "Feature", "properties": { "DISTRICT": 4, "WEBSITE": "https:\/\/www.ci.oceanside.ca.us\/gov\/council\/default.asp", "CODE": "OC", "JUR_NAME": "OCEANSIDE", "NAME": "Peter Weiss", "PHONE": "(760) 435-3066", "Shape_STAr": 271542644.708, "Shape_STLe": 84478.917650200005 }, "geometry": { "type": "Point", "coordinates": [ -117.293709358302294, 33.223528357175816 ] } },
{ "type": "Feature", "properties": { "DISTRICT": 2, "WEBSITE": "https:\/\/www.ci.oceanside.ca.us\/gov\/council\/default.asp", "CODE": "OC", "JUR_NAME": "OCEANSIDE", "NAME": "Christopher Rodrigue", "PHONE": "(760) 435-3046", "Shape_STAr": 401697075.89, "Shape_STLe": 130409.56471000001 }, "geometry": { "type": "Point", "coordinates": [ -117.287297130389462, 33.260418304331239 ] } },
{ "type": "Feature", "properties": { "DISTRICT": 3, "WEBSITE": "https:\/\/www.ci.oceanside.ca.us\/gov\/council\/default.asp", "CODE": "OC", "JUR_NAME": "OCEANSIDE", "NAME": "Ryan Keim", "PHONE": "(760) 435-3048", "Shape_STAr": 274577248.56, "Shape_STLe": 127117.998362 }, "geometry": { "type": "Point", "coordinates": [ -117.312710513038084, 33.185217142653777 ] } },
{ "type": "Feature", "properties": { "DISTRICT": 1, "WEBSITE": "https:\/\/www.ci.oceanside.ca.us\/gov\/council\/default.asp", "CODE": "OC", "JUR_NAME": "OCEANSIDE", "NAME": "Ester C Sanchez", "PHONE": "(760) 435-3057", "Shape_STAr": 227917587.419, "Shape_STLe": 87930.003934499997 }, "geometry": { "type": "Point", "coordinates": [ -117.357968533672931, 33.210389853143774 ] } },
{ "type": "Feature", "properties": { "DISTRICT": 1, "WEBSITE": "https:\/\/www.carlsbadca.gov\/city-hall\/city-council", "CODE": "CB", "JUR_NAME": "Carlsbad", "NAME": "Vacant", "PHONE": null, "Shape_STAr": 139403873.55199999, "Shape_STLe": 71709.059474399997 }, "geometry": { "type": "Point", "coordinates": [ -117.334152402631616, 33.161871220594598 ] } },
{ "type": "Feature", "properties": { "DISTRICT": 2, "WEBSITE": "https:\/\/www.carlsbadca.gov\/city-hall\/city-council", "CODE": "CB", "JUR_NAME": "Carlsbad", "NAME": "Keith Blackburn", "PHONE": "(760) 420-0279", "Shape_STAr": 475529018.62300003, "Shape_STLe": 163767.06803 }, "geometry": { "type": "Point", "coordinates": [ -117.286813751749804, 33.142416057823866 ] } },
{ "type": "Feature", "properties": { "DISTRICT": 4, "WEBSITE": "https:\/\/www.carlsbadca.gov\/city-hall\/city-council", "CODE": "CB", "JUR_NAME": "Carlsbad", "NAME": "Teresa Acosta", "PHONE": "(442) 200-8748", "Shape_STAr": 246821027.551, "Shape_STLe": 105506.712035 }, "geometry": { "type": "Point", "coordinates": [ -117.257748452655946, 33.083950102486092 ] } },
{ "type": "Feature", "properties": { "DISTRICT": 3, "WEBSITE": "https:\/\/www.carlsbadca.gov\/city-hall\/city-council", "CODE": "CB", "JUR_NAME": "Carlsbad", "NAME": "Priya Bhat-Patel", "PHONE": "(760) 434-2830", "Shape_STAr": 228481074.09599999, "Shape_STLe": 104943.606317 }, "geometry": { "type": "Point", "coordinates": [ -117.273573481234806, 33.108779884553606 ] } },
{ "type": "Feature", "properties": { "DISTRICT": 3, "WEBSITE": "https:\/\/poway.org\/163\/City-Council", "CODE": "PW", "JUR_NAME": "POWAY", "NAME": "John Mullin", "PHONE": "(858) 668-4523", "Shape_STAr": 127864205.8, "Shape_STLe": 60497.573748199997 }, "geometry": { "type": "Point", "coordinates": [ -117.040181691553173, 32.982743829559887 ] } },
{ "type": "Feature", "properties": { "DISTRICT": 1, "WEBSITE": "https:\/\/poway.org\/163\/City-Council", "CODE": "PW", "JUR_NAME": "POWAY", "NAME": "Dave Grosch", "PHONE": "(858) 668-4521", "Shape_STAr": 108778734.07600001, "Shape_STLe": 62239.222440899997 }, "geometry": { "type": "Point", "coordinates": [ -117.061124524582922, 32.966410738265807 ] } },
{ "type": "Feature", "properties": { "DISTRICT": 2, "WEBSITE": "https:\/\/poway.org\/163\/City-Council", "CODE": "PW", "JUR_NAME": "POWAY", "NAME": "Barry Leonard", "PHONE": "(858) 668-452", "Shape_STAr": 663434000.06599998, "Shape_STLe": 188324.82578099999 }, "geometry": { "type": "Point", "coordinates": [ -117.004799757647831, 33.003659602776828 ] } },
{ "type": "Feature", "properties": { "DISTRICT": 4, "WEBSITE": "https:\/\/poway.org\/163\/City-Council", "CODE": "PW", "JUR_NAME": "POWAY", "NAME": "Caylin Frank", "PHONE": "(858) 668-452", "Shape_STAr": 190632991.43399999, "Shape_STLe": 76448.222097200007 }, "geometry": { "type": "Point", "coordinates": [ -117.036593526589797, 32.944535032526439 ] } },
{ "type": "Feature", "properties": { "DISTRICT": 1, "WEBSITE": "https:\/\/cityofsanteeca.gov\/government\/city-council-copy-654", "CODE": "ST", "JUR_NAME": "SANTEE", "NAME": "Rob McNelis", "PHONE": "(619) 258-4100", "Shape_STAr": 144877023.30399999, "Shape_STLe": 63388.399195799997 }, "geometry": { "type": "Point", "coordinates": [ -116.976967167508434, 32.877755774409934 ] } },
{ "type": "Feature", "properties": { "DISTRICT": 2, "WEBSITE": "https:\/\/cityofsanteeca.gov\/government\/city-council-copy-654", "CODE": "ST", "JUR_NAME": "SANTEE", "NAME": "Ronn Hall", "PHONE": "(619) 258-4100", "Shape_STAr": 109329510.21, "Shape_STLe": 61295.803672499998 }, "geometry": { "type": "Point", "coordinates": [ -116.961212905740766, 32.842703451487559 ] } },
{ "type": "Feature", "properties": { "DISTRICT": 3, "WEBSITE": "https:\/\/cityofsanteeca.gov\/government\/city-council-copy-654", "CODE": "ST", "JUR_NAME": "SANTEE", "NAME": "Laura Koval", "PHONE": "(619) 258-4100", "Shape_STAr": 97230098.689899996, "Shape_STLe": 67250.126668900004 }, "geometry": { "type": "Point", "coordinates": [ -117.005259272002974, 32.832276077374637 ] } },
{ "type": "Feature", "properties": { "DISTRICT": 4, "WEBSITE": "https:\/\/cityofsanteeca.gov\/government\/city-council-copy-654", "CODE": "ST", "JUR_NAME": "SANTEE", "NAME": "Dustin Trotter", "PHONE": "(619) 258-4100", "Shape_STAr": 114544089.25, "Shape_STLe": 61063.330770499997 }, "geometry": { "type": "Point", "coordinates": [ -117.001415465711247, 32.859066390597199 ] } },
{ "type": "Feature", "properties": { "DISTRICT": 1, "WEBSITE": "https:\/\/encinitasca.gov\/Government\/Elected-Officials", "CODE": "EN", "JUR_NAME": "ENCINITAS", "NAME": "Tony Kranz", "PHONE": "(760) 633-2623", "Shape_STAr": 136479191.917, "Shape_STLe": 70808.011209000004 }, "geometry": { "type": "Point", "coordinates": [ -117.281021524677499, 33.070788527220188 ] } },
{ "type": "Feature", "properties": { "DISTRICT": 4, "WEBSITE": "https:\/\/encinitasca.gov\/Government\/Elected-Officials", "CODE": "EN", "JUR_NAME": "ENCINITAS", "NAME": "Joe Mosca", "PHONE": "(760) 633-2624", "Shape_STAr": 191355036.259, "Shape_STLe": 115351.440975 }, "geometry": { "type": "Point", "coordinates": [ -117.231355307132247, 33.050092621093953 ] } },
{ "type": "Feature", "properties": { "DISTRICT": 2, "WEBSITE": "https:\/\/encinitasca.gov\/Government\/Elected-Officials", "CODE": "EN", "JUR_NAME": "ENCINITAS", "NAME": "Kellie Hinze", "PHONE": "(760) 633-2622", "Shape_STAr": 80692747.608099997, "Shape_STLe": 42576.5207295 }, "geometry": { "type": "Point", "coordinates": [ -117.286485674066384, 33.04928010779556 ] } },
{ "type": "Feature", "properties": { "DISTRICT": 3, "WEBSITE": "https:\/\/encinitasca.gov\/Government\/Elected-Officials", "CODE": "EN", "JUR_NAME": "ENCINITAS", "NAME": "Joy Lyndes", "PHONE": "(760) 633-2621", "Shape_STAr": 138032784.53099999, "Shape_STLe": 69767.908320500006 }, "geometry": { "type": "Point", "coordinates": [ -117.268217956189062, 33.0259261220111 ] } },
{ "type": "Feature", "properties": { "DISTRICT": 2, "WEBSITE": "https:\/\/www.imperialbeachca.gov\/", "CODE": "IB", "JUR_NAME": "IMPERIAL BEACH", "NAME": null, "PHONE": null, "Shape_STAr": 20615275.178599998, "Shape_STLe": 22244.819709 }, "geometry": { "type": "Point", "coordinates": [ -117.119496584405027, 32.581470409936387 ] } },
{ "type": "Feature", "properties": { "DISTRICT": 1, "WEBSITE": "https:\/\/www.imperialbeachca.gov\/", "CODE": "IB", "JUR_NAME": "IMPERIAL BEACH", "NAME": null, "PHONE": null, "Shape_STAr": 13324501.002499999, "Shape_STLe": 19974.372661500001 }, "geometry": { "type": "Point", "coordinates": [ -117.111780451746171, 32.585233451338667 ] } },
{ "type": "Feature", "properties": { "DISTRICT": 3, "WEBSITE": "https:\/\/www.imperialbeachca.gov\/", "CODE": "IB", "JUR_NAME": "IMPERIAL BEACH", "NAME": null, "PHONE": null, "Shape_STAr": 32660526.6664, "Shape_STLe": 35168.143221799997 }, "geometry": { "type": "Point", "coordinates": [ -117.125287760022587, 32.571072193541504 ] } },
{ "type": "Feature", "properties": { "DISTRICT": 4, "WEBSITE": "https:\/\/www.imperialbeachca.gov\/", "CODE": "IB", "JUR_NAME": "IMPERIAL BEACH", "NAME": null, "PHONE": null, "Shape_STAr": 57061661.127400003, "Shape_STLe": 51552.368004999997 }, "geometry": { "type": "Point", "coordinates": [ -117.115456495019643, 32.559347734545163 ] } },
{ "type": "Feature", "properties": { "DISTRICT": 3, "WEBSITE": "https:\/\/www.chulavistaca.gov\/departments\/mayor-and-council\/district-3", "CODE": "CV", "JUR_NAME": "CHULA VISTA", "NAME": "Stephen C Badilla", "PHONE": "(619) 691-5044", "Shape_STAr": 520538457.79299998, "Shape_STLe": 141351.06905600001 }, "geometry": { "type": "Point", "coordinates": [ -116.98466867627593, 32.6114542330319 ] } },
{ "type": "Feature", "properties": { "DISTRICT": 4, "WEBSITE": "https:\/\/www.chulavistaca.gov\/departments\/mayor-and-council\/district-4", "CODE": "CV", "JUR_NAME": "CHULA VISTA", "NAME": "Andrea Cardenas", "PHONE": "(619) 694-5044", "Shape_STAr": 195012407.52399999, "Shape_STLe": 63700.007216099999 }, "geometry": { "type": "Point", "coordinates": [ -117.063171624092803, 32.606687212821136 ] } },
{ "type": "Feature", "properties": { "DISTRICT": 2, "WEBSITE": "https:\/\/www.chulavistaca.gov\/departments\/mayor-and-council\/district-2-councilmember-galvez", "CODE": "CV", "JUR_NAME": "CHULA VISTA", "NAME": "Jill Galvez", "PHONE": "(619) 691-5177", "Shape_STAr": 301333113.05400002, "Shape_STLe": 112981.968548 }, "geometry": { "type": "Point", "coordinates": [ -117.084267298407468, 32.634336664923538 ] } },
{ "type": "Feature", "properties": { "DISTRICT": 1, "WEBSITE": "https:\/\/www.chulavistaca.gov\/departments\/mayor-and-council\/councilmember-mccann", "CODE": "CV", "JUR_NAME": "CHULA VISTA", "NAME": "John McCann", "PHONE": "(619) 691-5044", "Shape_STAr": 437017452.68900001, "Shape_STLe": 217051.896699 }, "geometry": { "type": "Point", "coordinates": [ -116.979136571108299, 32.65328442559386 ] } },
{ "type": "Feature", "properties": { "DISTRICT": 4, "WEBSITE": "https:\/\/www.cityofvista.com\/city-hall\/city-council", "CODE": "VS", "JUR_NAME": "VISTA", "NAME": "John Franklin", "PHONE": "(760) 689-2220", "Shape_STAr": 189989085.08500001, "Shape_STLe": 117078.97236099999 }, "geometry": { "type": "Point", "coordinates": [ -117.233748535654925, 33.159857025458379 ] } },
{ "type": "Feature", "properties": { "DISTRICT": 1, "WEBSITE": "https:\/\/www.cityofvista.com\/city-hall\/city-council", "CODE": "VS", "JUR_NAME": "VISTA", "NAME": "Corinna Contreras", "PHONE": "(760) 639-6130", "Shape_STAr": 75581048.974399999, "Shape_STLe": 53969.9794969 }, "geometry": { "type": "Point", "coordinates": [ -117.247363184598086, 33.21863156551737 ] } },
{ "type": "Feature", "properties": { "DISTRICT": 2, "WEBSITE": "https:\/\/www.cityofvista.com\/city-hall\/city-council", "CODE": "VS", "JUR_NAME": "VISTA", "NAME": "Joe Green", "PHONE": "(760) 639-6130", "Shape_STAr": 150710856.34, "Shape_STLe": 135202.773713 }, "geometry": { "type": "Point", "coordinates": [ -117.222814573865563, 33.209692549101447 ] } },
{ "type": "Feature", "properties": { "DISTRICT": 3, "WEBSITE": "https:\/\/www.cityofvista.com\/city-hall\/city-council", "CODE": "VS", "JUR_NAME": "VISTA", "NAME": "Katie Melendez", "PHONE": "(760) 639-6130", "Shape_STAr": 106733853.117, "Shape_STLe": 67238.169865100004 }, "geometry": { "type": "Point", "coordinates": [ -117.263060622657591, 33.193896911918053 ] } },
{ "type": "Feature", "properties": { "DISTRICT": 1, "WEBSITE": "https:\/\/www.sandiego.gov\/citycouncil\/cd1\/index.shtml", "CODE": "SD", "JUR_NAME": "SAN DIEGO", "NAME": "Joe LaCava", "PHONE": "(619) 236-6611", "Shape_STAr": 1298054968.8800001, "Shape_STLe": 249481.51715199999 }, "geometry": { "type": "Point", "coordinates": [ -117.223955982247986, 32.905253685500192 ] } },
{ "type": "Feature", "properties": { "DISTRICT": 2, "WEBSITE": "https:\/\/www.sandiego.gov\/citycouncil\/cd2\/index.shtml", "CODE": "SD", "JUR_NAME": "SAN DIEGO", "NAME": "Jennifer Campbell", "PHONE": "(619) 236-6622", "Shape_STAr": 1068169969.48, "Shape_STLe": 235876.64322200001 }, "geometry": { "type": "Point", "coordinates": [ -117.221322992885504, 32.752106583843975 ] } },
{ "type": "Feature", "properties": { "DISTRICT": 3, "WEBSITE": "https:\/\/www.sandiego.gov\/citycouncil\/cd3\/index.shtml", "CODE": "SD", "JUR_NAME": "SAN DIEGO", "NAME": "Stephen Whitburn", "PHONE": "(619) 236-6633", "Shape_STAr": 416385033.79299998, "Shape_STLe": 123627.108763 }, "geometry": { "type": "Point", "coordinates": [ -117.147845927245896, 32.740560409276597 ] } },
{ "type": "Feature", "properties": { "DISTRICT": 4, "WEBSITE": "https:\/\/www.sandiego.gov\/citycouncil\/cd4\/index.shtml", "CODE": "SD", "JUR_NAME": "SAN DIEGO", "NAME": "Monica Montgomery", "PHONE": "(619) 236-6644", "Shape_STAr": 484877570.74299997, "Shape_STLe": 142029.81605200001 }, "geometry": { "type": "Point", "coordinates": [ -117.061829453849327, 32.708048509602079 ] } },
{ "type": "Feature", "properties": { "DISTRICT": 5, "WEBSITE": "https:\/\/www.sandiego.gov\/citycouncil\/cd5\/index.shtml", "CODE": "SD", "JUR_NAME": "SAN DIEGO", "NAME": "Marni Von Wilpert", "PHONE": "(619) 236-6655", "Shape_STAr": 1774685482.6900001, "Shape_STLe": 537515.42170499999 }, "geometry": { "type": "Point", "coordinates": [ -117.073008316662595, 32.999443773719534 ] } },
{ "type": "Feature", "properties": { "DISTRICT": 6, "WEBSITE": "https:\/\/www.sandiego.gov\/citycouncil\/cd6\/index.shtml", "CODE": "SD", "JUR_NAME": "SAN DIEGO", "NAME": "Chris Cate", "PHONE": "(619) 236-6616", "Shape_STAr": 1287823083.29, "Shape_STLe": 207243.78435100001 }, "geometry": { "type": "Point", "coordinates": [ -117.156252962551363, 32.874179381067108 ] } },
{ "type": "Feature", "properties": { "DISTRICT": 7, "WEBSITE": "https:\/\/www.sandiego.gov\/citycouncil\/cd7\/index.shtml", "CODE": "SD", "JUR_NAME": "SAN DIEGO", "NAME": "Raul Campillo", "PHONE": "(619) 236-6677", "Shape_STAr": 1812696415.23, "Shape_STLe": 308572.772406 }, "geometry": { "type": "Point", "coordinates": [ -117.074526529194785, 32.836490952630648 ] } },
{ "type": "Feature", "properties": { "DISTRICT": 8, "WEBSITE": "https:\/\/www.sandiego.gov\/citycouncil\/cd8\/index.shtml", "CODE": "SD", "JUR_NAME": "SAN DIEGO", "NAME": "Vivian Moreno", "PHONE": "(619) 236-6688", "Shape_STAr": 1047852319.88, "Shape_STLe": 324118.1995 }, "geometry": { "type": "Point", "coordinates": [ -117.052411395317137, 32.585869313416396 ] } },
{ "type": "Feature", "properties": { "DISTRICT": 9, "WEBSITE": "https:\/\/www.sandiego.gov\/citycouncil\/cd9\/index.shtml", "CODE": "SD", "JUR_NAME": "SAN DIEGO", "NAME": "Sean Elo-Rivera", "PHONE": "(619) 236-6699", "Shape_STAr": 353204529.287, "Shape_STLe": 129308.315648 }, "geometry": { "type": "Point", "coordinates": [ -117.092076436144254, 32.746816786266066 ] } }
]
}
