{"type":"FeatureCollection","features":[{"type":"Feature","properties":{"DISTRICT":4,"WEBSITE":"https://www.escondido.org/city-council.aspx","CODE":"ES","JUR_NAME":"ESCONDIDO","NAME":"Michael Morasco","PHONE":"(760) 839-4638","Shape_STAr":286388728.052,"Shape_STLe":239084.951974},"geometry":{"type":"Point","coordinates":[-117.0834,33.09121]}},{"type":"Feature","properties":{"DISTRICT":2,"WEBSITE":"https://www.escondido.org/city-council.aspx","CODE":"ES","JUR_NAME":"ESCONDIDO","NAME":"Tina Inscoe","PHONE":"(760) 839-4638","Shape_STAr":493572466.836,"Shape_STLe":303649.76733},"geometry":{"type":"Point","coordinates":[-117.07995,33.16131]}},{"type":"Feature","properties":{"DISTRICT":1,"WEBSITE":"https://www.escondido.org/city-council.aspx","CODE":"ES","JUR_NAME":"ESCONDIDO","NAME":"Consuelo Martinez","PHONE":"(760) 839-4638","Shape_STAr":68952038.1626,"Shape_STLe":40508.4680507},"geometry":{"type":"Point","coordinates":[-117.07077,33.13915]}},{"type":"Feature","properties":{"DISTRICT":3,"WEBSITE":"https://www.escondido.org/city-council.aspx","CODE":"ES","JUR_NAME":"ESCONDIDO","NAME":"Joe Garcia","PHONE":"(760) 839-4638","Shape_STAr":190140259.794,"Shape_STLe":109931.003743},"geometry":{"type":"Point","coordinates":[-117.03531,33.12987]}},{"type":"Feature","properties":{"DISTRICT":1,"WEBSITE":"https://www.san-marcos.net/departments/city-clerk/city-council","CODE":"SM","JUR_NAME":"SAN MARCOS","NAME":"Maria Nunez","PHONE":"(760) 744-1050","Shape_STAr":99620567.2416,"Shape_STLe":72568.2262652},"geometry":{"type":"Point","coordinates":[-117.17657,33.14625]}},{"type":"Feature","properties":{"DISTRICT":4,"WEBSITE":"https://www.san-marcos.net/departments/city-clerk/city-council","CODE":"SM","JUR_NAME":"SAN MARCOS","NAME":"Ed Musgrove","PHONE":"(760) 744-1050","Shape_STAr":174054611.186,"Shape_STLe":100738.442001},"geometry":{"type":"Point","coordinates":[-117.16322,33.16255]}},{"type":"Feature","properties":{"DISTRICT":3,"WEBSITE":"https://www.san-marcos.net/departments/city-clerk/city-council","CODE":"SM","JUR_NAME":"SAN MARCOS","NAME":"Sharon Jenkins","PHONE":"(760) 744-1050","Shape_STAr":182099451.839,"Shape_STLe":99547.1659128},"geometry":{"type":"Point","coordinates":[-117.15884,33.13226]}},{"type":"Feature","properties":{"DISTRICT":2,"WEBSITE":"https://www.san-marcos.net/departments/city-clerk/city-council","CODE":"SM","JUR_NAME":"SAN MARCOS","NAME":"Randy Walton","PHONE":"(760) 744-1050","Shape_STAr":222737583.631,"Shape_STLe":129782.32443},"geometry":{"type":"Point","coordinates":[-117.19439,33.11061]}},{"type":"Feature","properties":{"DISTRICT":1,"WEBSITE":"https://www.cityofelcajon.us/your-government/elected-officials/city-council","CODE":"EC","JUR_NAME":"EL CAJON","NAME":"Gary Kendrick","PHONE":"(619) 441-1788","Shape_STAr":200786899.965,"Shape_STLe":98943.2029217},"geometry":{"type":"Point","coordinates":[-116.98265,32.80616]}},{"type":"Feature","properties":{"DISTRICT":4,"WEBSITE":"https://www.cityofelcajon.us/your-government/elected-officials/city-council","CODE":"EC","JUR_NAME":"EL CAJON","NAME":"Phil Ortiz","PHONE":"(619) 441-1788","Shape_STAr":51901224.2958,"Shape_STLe":53545.953052},"geometry":{"type":"Point","coordinates":[-116.95409,32.78473]}},{"type":"Feature","properties":{"DISTRICT":2,"WEBSITE":"https://www.cityofelcajon.us/your-government/elected-officials/city-council","CODE":"EC","JUR_NAME":"EL CAJON","NAME":"Michelle Metschel","PHONE":"(619) 441-1788","Shape_STAr":57415734.487,"Shape_STLe":61115.598893},"geometry":{"type":"Point","coordinates":[-116.95074,32.80339]}},{"type":"Feature","properties":{"DISTRICT":3,"WEBSITE":"https://www.cityofelcajon.us/your-government/elected-officials/city-council","CODE":"EC","JUR_NAME":"EL CAJON","NAME":"Steve Goble","PHONE":"(619) 441-1788","Shape_STAr":95111068.9716,"Shape_STLe":108208.39834},"geometry":{"type":"Point","coordinates":[-116.92286,32.80042]}},{"type":"Feature","properties":{"DISTRICT":4,"WEBSITE":"https://www.ci.oceanside.ca.us/gov/council/default.asp","CODE":"OC","JUR_NAME":"OCEANSIDE","NAME":"Peter Weiss","PHONE":"(760) 435-3066","Shape_STAr":271542644.708,"Shape_STLe":84478.9176502},"geometry":{"type":"Point","coordinates":[-117.29371,33.22353]}},{"type":"Feature","properties":{"DISTRICT":2,"WEBSITE":"https://www.ci.oceanside.ca.us/gov/council/default.asp","CODE":"OC","JUR_NAME":"OCEANSIDE","NAME":"Christopher Rodrigue","PHONE":"(760) 435-3046","Shape_STAr":401697075.89,"Shape_STLe":130409.56471},"geometry":{"type":"Point","coordinates":[-117.2873,33.26042]}},{"type":"Feature","properties":{"DISTRICT":3,"WEBSITE":"https://www.ci.oceanside.ca.us/gov/council/default.asp","CODE":"OC","JUR_NAME":"OCEANSIDE","NAME":"Ryan Keim","PHONE":"(760) 435-3048","Shape_STAr":274577248.56,"Shape_STLe":127117.998362},"geometry":{"type":"Point","coordinates":[-117.31271,33.18522]}},{"type":"Feature","properties":{"DISTRICT":1,"WEBSITE":"https://www.ci.oceanside.ca.us/gov/council/default.asp","CODE":"OC","JUR_NAME":"OCEANSIDE","NAME":"Ester C Sanchez","PHONE":"(760) 435-3057","Shape_STAr":227917587.419,"Shape_STLe":87930.0039345},"geometry":{"type":"Point","coordinates":[-117.35797,33.21039]}},{"type":"Feature","properties":{"DISTRICT":1,"WEBSITE":"https://www.carlsbadca.gov/city-hall/city-council","CODE":"CB","JUR_NAME":"Carlsbad","NAME":"Vacant","Shape_STAr":139403873.552,"Shape_STLe":71709.0594744},"geometry":{"type":"Point","coordinates":[-117.33415,33.16187]}},{"type":"Feature","properties":{"DISTRICT":2,"WEBSITE":"https://www.carlsbadca.gov/city-hall/city-council","CODE":"CB","JUR_NAME":"Carlsbad","NAME":"Keith Blackburn","PHONE":"(760) 420-0279","Shape_STAr":475529018.623,"Shape_STLe":163767.06803},"geometry":{"type":"Point","coordinates":[-117.28681,33.14242]}},{"type":"Feature","properties":{"DISTRICT":4,"WEBSITE":"https://www.carlsbadca.gov/city-hall/city-council","CODE":"CB","JUR_NAME":"Carlsbad","NAME":"Teresa Acosta","PHONE":"(442) 200-8748","Shape_STAr":246821027.551,"Shape_STLe":105506.712035},"geometry":{"type":"Point","coordinates":[-117.25775,33.08395]}},{"type":"Feature","properties":{"DISTRICT":3,"WEBSITE":"https://www.carlsbadca.gov/city-hall/city-council","CODE":"CB","JUR_NAME":"Carlsbad","NAME":"Priya Bhat-Patel","PHONE":"(760) 434-2830","Shape_STAr":228481074.096,"Shape_STLe":104943.606317},"geometry":{"type":"Point","coordinates":[-117.27357,33.10878]}},{"type":"Feature","properties":{"DISTRICT":3,"WEBSITE":"https://poway.org/163/City-Council","CODE":"PW","JUR_NAME":"POWAY","NAME":"John Mullin","PHONE":"(858) 668-4523","Shape_STAr":127864205.8,"Shape_STLe":60497.5737482},"geometry":{"type":"Point","coordinates":[-117.04018,32.98274]}},{"type":"Feature","properties":{"DISTRICT":1,"WEBSITE":"https://poway.org/163/City-Council","CODE":"PW","JUR_NAME":"POWAY","NAME":"Dave Grosch","PHONE":"(858) 668-4521","Shape_STAr":108778734.076,"Shape_STLe":62239.2224409},"geometry":{"type":"Point","coordinates":[-117.06112,32.96641]}},{"type":"Feature","properties":{"DISTRICT":2,"WEBSITE":"https://poway.org/163/City-Council","CODE":"PW","JUR_NAME":"POWAY","NAME":"Barry Leonard","PHONE":"(858) 668-452","Shape_STAr":663434000.066,"Shape_STLe":188324.825781},"geometry":{"type":"Point","coordinates":[-117.0048,33.00366]}},{"type":"Feature","properties":{"DISTRICT":4,"WEBSITE":"https://poway.org/163/City-Council","CODE":"PW","JUR_NAME":"POWAY","NAME":"Caylin Frank","PHONE":"(858) 668-452","Shape_STAr":190632991.434,"Shape_STLe":76448.2220972},"geometry":{"type":"Point","coordinates":[-117.03659,32.94454]}},{"type":"Feature","properties":{"DISTRICT":1,"WEBSITE":"https://cityofsanteeca.gov/government/city-council-copy-654","CODE":"ST","JUR_NAME":"SANTEE","NAME":"Rob McNelis","PHONE":"(619) 258-4100","Shape_STAr":144877023.304,"Shape_STLe":63388.3991958},"geometry":{"type":"Point","coordinates":[-116.97697,32.87776]}},{"type":"Feature","properties":{"DISTRICT":2,"WEBSITE":"https://cityofsanteeca.gov/government/city-council-copy-654","CODE":"ST","JUR_NAME":"SANTEE","NAME":"Ronn Hall","PHONE":"(619) 258-4100","Shape_STAr":109329510.21,"Shape_STLe":61295.8036725},"geometry":{"type":"Point","coordinates":[-116.96121,32.8427]}},{"type":"Feature","properties":{"DISTRICT":3,"WEBSITE":"https://cityofsanteeca.gov/government/city-council-copy-654","CODE":"ST","JUR_NAME":"SANTEE","NAME":"Laura Koval","PHONE":"(619) 258-4100","Shape_STAr":97230098.6899,"Shape_STLe":67250.1266689},"geometry":{"type":"Point","coordinates":[-117.00526,32.83228]}},{"type":"Feature","properties":{"DISTRICT":4,"WEBSITE":"https://cityofsanteeca.gov/government/city-council-copy-654","CODE":"ST","JUR_NAME":"SANTEE","NAME":"Dustin Trotter","PHONE":"(619) 258-4100","Shape_STAr":114544089.25,"Shape_STLe":61063.3307705},"geometry":{"type":"Point","coordinates":[-117.00142,32.85907]}},{"type":"Feature","properties":{"DISTRICT":1,"WEBSITE":"https://encinitasca.gov/Government/Elected-Officials","CODE":"EN","JUR_NAME":"ENCINITAS","NAME":"Tony Kranz","PHONE":"(760) 633-2623","Shape_STAr":136479191.917,"Shape_STLe":70808.011209},"geometry":{"type":"Point","coordinates":[-117.28102,33.07079]}},{"type":"Feature","properties":{"DISTRICT":4,"WEBSITE":"https://encinitasca.gov/Government/Elected-Officials","CODE":"EN","JUR_NAME":"ENCINITAS","NAME":"Joe Mosca","PHONE":"(760) 633-2624","Shape_STAr":191355036.259,"Shape_STLe":115351.440975},"geometry":{"type":"Point","coordinates":[-117.23136,33.05009]}},{"type":"Feature","properties":{"DISTRICT":2,"WEBSITE":"https://encinitasca.gov/Government/Elected-Officials","CODE":"EN","JUR_NAME":"ENCINITAS","NAME":"Kellie Hinze","PHONE":"(760) 633-2622","Shape_STAr":80692747.6081,"Shape_STLe":42576.5207295},"geometry":{"type":"Point","coordinates":[-117.28649,33.04928]}},{"type":"Feature","properties":{"DISTRICT":3,"WEBSITE":"https://encinitasca.gov/Government/Elected-Officials","CODE":"EN","JUR_NAME":"ENCINITAS","NAME":"Joy Lyndes","PHONE":"(760) 633-2621","Shape_STAr":138032784.531,"Shape_STLe":69767.9083205},"geometry":{"type":"Point","coordinates":[-117.26822,33.02593]}},{"type":"Feature","properties":{"DISTRICT":2,"WEBSITE":"https://www.imperialbeachca.gov/","CODE":"IB","JUR_NAME":"IMPERIAL BEACH","Shape_STAr":20615275.1786,"Shape_STLe":22244.819709},"geometry":{"type":"Point","coordinates":[-117.1195,32.58147]}},{"type":"Feature","properties":{"DISTRICT":1,"WEBSITE":"https://www.imperialbeachca.gov/","CODE":"IB","JUR_NAME":"IMPERIAL BEACH","Shape_STAr":13324501.0025,"Shape_STLe":19974.3726615},"geometry":{"type":"Point","coordinates":[-117.11178,32.58523]}},{"type":"Feature","properties":{"DISTRICT":3,"WEBSITE":"https://www.imperialbeachca.gov/","CODE":"IB","JUR_NAME":"IMPERIAL BEACH","Shape_STAr":32660526.6664,"Shape_STLe":35168.1432218},"geometry":{"type":"Point","coordinates":[-117.12529,32.57107]}},{"type":"Feature","properties":{"DISTRICT":4,"WEBSITE":"https://www.imperialbeachca.gov/","CODE":"IB","JUR_NAME":"IMPERIAL BEACH","Shape_STAr":57061661.1274,"Shape_STLe":51552.368005},"geometry":{"type":"Point","coordinates":[-117.11546,32.55935]}},{"type":"Feature","properties":{"DISTRICT":3,"WEBSITE":"https://www.chulavistaca.gov/departments/mayor-and-council/district-3","CODE":"CV","JUR_NAME":"CHULA VISTA","NAME":"Stephen C Badilla","PHONE":"(619) 691-5044","Shape_STAr":520538457.793,"Shape_STLe":141351.069056},"geometry":{"type":"Point","coordinates":[-116.98467,32.61145]}},{"type":"Feature","properties":{"DISTRICT":4,"WEBSITE":"https://www.chulavistaca.gov/departments/mayor-and-council/district-4","CODE":"CV","JUR_NAME":"CHULA VISTA","NAME":"Andrea Cardenas","PHONE":"(619) 694-5044","Shape_STAr":195012407.524,"Shape_STLe":63700.0072161},"geometry":{"type":"Point","coordinates":[-117.06317,32.60669]}},{"type":"Feature","properties":{"DISTRICT":2,"WEBSITE":"https://www.chulavistaca.gov/departments/mayor-and-council/district-2-councilmember-galvez","CODE":"CV","JUR_NAME":"CHULA VISTA","NAME":"Jill Galvez","PHONE":"(619) 691-5177","Shape_STAr":301333113.054,"Shape_STLe":112981.968548},"geometry":{"type":"Point","coordinates":[-117.08427,32.63434]}},{"type":"Feature","properties":{"DISTRICT":1,"WEBSITE":"https://www.chulavistaca.gov/departments/mayor-and-council/councilmember-mccann","CODE":"CV","JUR_NAME":"CHULA VISTA","NAME":"John McCann","PHONE":"(619) 691-5044","Shape_STAr":437017452.689,"Shape_STLe":217051.896699},"geometry":{"type":"Point","coordinates":[-116.97914,32.65328]}},{"type":"Feature","properties":{"DISTRICT":4,"WEBSITE":"https://www.cityofvista.com/city-hall/city-council","CODE":"VS","JUR_NAME":"VISTA","NAME":"John Franklin","PHONE":"(760) 689-2220","Shape_STAr":189989085.085,"Shape_STLe":117078.972361},"geometry":{"type":"Point","coordinates":[-117.23375,33.15986]}},{"type":"Feature","properties":{"DISTRICT":1,"WEBSITE":"https://www.cityofvista.com/city-hall/city-council","CODE":"VS","JUR_NAME":"VISTA","NAME":"Corinna Contreras","PHONE":"(760) 639-6130","Shape_STAr":75581048.9744,"Shape_STLe":53969.9794969},"geometry":{"type":"Point","coordinates":[-117.24736,33.21863]}},{"type":"Feature","properties":{"DISTRICT":2,"WEBSITE":"https://www.cityofvista.com/city-hall/city-council","CODE":"VS","JUR_NAME":"VISTA","NAME":"Joe Green","PHONE":"(760) 639-6130","Shape_STAr":150710856.34,"Shape_STLe":135202.773713},"geometry":{"type":"Point","coordinates":[-117.22281,33.20969]}},{"type":"Feature","properties":{"DISTRICT":3,"WEBSITE":"https://www.cityofvista.com/city-hall/city-council","CODE":"VS","JUR_NAME":"VISTA","NAME":"Katie Melendez","PHONE":"(760) 639-6130","Shape_STAr":106733853.117,"Shape_STLe":67238.1698651},"geometry":{"type":"Point","coordinates":[-117.26306,33.1939]}},{"type":"Feature","properties":{"DISTRICT":1,"WEBSITE":"https://www.sandiego.gov/citycouncil/cd1/index.shtml","CODE":"SD","JUR_NAME":"SAN DIEGO","NAME":"Joe LaCava","PHONE":"(619) 236-6611","Shape_STAr":1298054968.88,"Shape_STLe":249481.517152},"geometry":{"type":"Point","coordinates":[-117.22396,32.90525]}},{"type":"Feature","properties":{"DISTRICT":2,"WEBSITE":"https://www.sandiego.gov/citycouncil/cd2/index.shtml","CODE":"SD","JUR_NAME":"SAN DIEGO","NAME":"Jennifer Campbell","PHONE":"(619) 236-6622","Shape_STAr":1068169969.48,"Shape_STLe":235876.643222},"geometry":{"type":"Point","coordinates":[-117.22132,32.75211]}},{"type":"Feature","properties":{"DISTRICT":3,"WEBSITE":"https://www.sandiego.gov/citycouncil/cd3/index.shtml","CODE":"SD","JUR_NAME":"SAN DIEGO","NAME":"Stephen Whitburn","PHONE":"(619) 236-6633","Shape_STAr":416385033.793,"Shape_STLe":123627.108763},"geometry":{"type":"Point","coordinates":[-117.14785,32.74056]}},{"type":"Feature","properties":{"DISTRICT":4,"WEBSITE":"https://www.sandiego.gov/citycouncil/cd4/index.shtml","CODE":"SD","JUR_NAME":"SAN DIEGO","NAME":"Monica Montgomery","PHONE":"(619) 236-6644","Shape_STAr":484877570.743,"Shape_STLe":142029.816052},"geometry":{"type":"Point","coordinates":[-117.06183,32.70805]}},{"type":"Feature","properties":{"DISTRICT":5,"WEBSITE":"https://www.sandiego.gov/citycouncil/cd5/index.shtml","CODE":"SD","JUR_NAME":"SAN DIEGO","NAME":"Marni Von Wilpert","PHONE":"(619) 236-6655","Shape_STAr":1774685482.69,"Shape_STLe":537515.421705},"geometry":{"type":"Point","coordinates":[-117.07301,32.99944]}},{"type":"Feature","properties":{"DISTRICT":6,"WEBSITE":"https://www.sandiego.gov/citycouncil/cd6/index.shtml","CODE":"SD","JUR_NAME":"SAN DIEGO","NAME":"Chris Cate","PHONE":"(619) 236-6616","Shape_STAr":1287823083.29,"Shape_STLe":207243.784351},"geometry":{"type":"Point","coordinates":[-117.15625,32.87418]}},{"type":"Feature","properties":{"DISTRICT":7,"WEBSITE":"https://www.sandiego.gov/citycouncil/cd7/index.shtml","CODE":"SD","JUR_NAME":"SAN DIEGO","NAME":"Raul Campillo","PHONE":"(619) 236-6677","Shape_STAr":1812696415.23,"Shape_STLe":308572.772406},"geometry":{"type":"Point","coordinates":[-117.07453,32.83649]}},{"type":"Feature","properties":{"DISTRICT":8,"WEBSITE":"https://www.sandiego.gov/citycouncil/cd8/index.shtml","CODE":"SD","JUR_NAME":"SAN DIEGO","NAME":"Vivian Moreno","PHONE":"(619) 236-6688","Shape_STAr":1047852319.88,"Shape_STLe":324118.1995},"geometry":{"type":"Point","coordinates":[-117.05241,32.58587]}},{"type":"Feature","properties":{"DISTRICT":9,"WEBSITE":"https://www.sandiego.gov/citycouncil/cd9/index.shtml","CODE":"SD","JUR_NAME":"SAN DIEGO","NAME":"Sean Elo-Rivera","PHONE":"(619) 236-6699","Shape_STAr":353204529.287,"Shape_STLe":129308.315648},"geometry":{"type":"Point","coordinates":[-117.09208,32.74682]}}]}