{
"type": "FeatureCollection",
"features": [
{
  "type": "Feature",
  "id": "node/358779422",
  "properties": {
    "amenity": "school",
    "ele": "121",
    "gnis:county_id": "073",
    "gnis:created": "01/19/1981",
    "gnis:feature_id": "238402",
    "gnis:state_id": "06",
    "name": "Academy of our Lady of Peace",
    "wikidata": "Q7712191",
    "id": "node/358779422"
  },
  "geometry": {
    "type": "Point",
    "coordinates": [
      -117.1355881,
      32.7650502
    ]
  }
},
{
  "type": "Feature",
  "id": "node/358779429",
  "properties": {
    "amenity": "school",
    "ele": "123",
    "gnis:county_id": "073",
    "gnis:created": "06/14/2000",
    "gnis:edited": "11/04/2007",
    "gnis:feature_id": "238411",
    "gnis:state_id": "06",
    "name": "John Adams Elementary School",
    "id": "node/358779429"
  },
  "geometry": {
    "type": "Point",
    "coordinates": [
      -117.1188889,
      32.7613889
    ]
  }
},
{
  "type": "Feature",
  "id": "node/358779568",
  "properties": {
    "amenity": "school",
    "ele": "43",
    "gnis:county_id": "073",
    "gnis:created": "06/14/2000",
    "gnis:feature_id": "238534",
    "gnis:state_id": "06",
    "name": "Ella B Allen-Ann Daly Elementary School",
    "id": "node/358779568"
  },
  "geometry": {
    "type": "Point",
    "coordinates": [
      -117.0330825,
      32.6567207
    ]
  }
},
{
  "type": "Feature",
  "id": "node/358779608",
  "properties": {
    "amenity": "school",
    "ele": "538",
    "gnis:county_id": "073",
    "gnis:created": "06/14/2000",
    "gnis:feature_id": "238555",
    "gnis:state_id": "06",
    "name": "Alpine Elementary School",
    "id": "node/358779608"
  },
  "geometry": {
    "type": "Point",
    "coordinates": [
      -116.7742181,
      32.8381011
    ]
  }
},
{
  "type": "Feature",
  "id": "node/358779627",
  "properties": {
    "amenity": "school",
    "ele": "154",
    "gnis:county_id": "073",
    "gnis:created": "01/19/1981",
    "gnis:feature_id": "238559",
    "gnis:state_id": "06",
    "name": "Alta School",
    "id": "node/358779627"
  },
  "geometry": {
    "type": "Point",
    "coordinates": [
      -116.9711403,
      32.5679599
    ]
  }
},
{
  "type": "Feature",
  "id": "node/358780140",
  "properties": {
    "amenity": "school",
    "ele": "23",
    "gnis:county_id": "073",
    "gnis:created": "06/14/2000",
    "gnis:feature_id": "238903",
    "gnis:state_id": "06",
    "name": "Baker Elementary School",
    "id": "node/358780140"
  },
  "geometry": {
    "type": "Point",
    "coordinates": [
      -117.1078084,
      32.6981079
    ]
  }
},
{
  "type": "Feature",
  "id": "node/358780235",
  "properties": {
    "addr:city": "El Cajon",
    "addr:housenumber": "750",
    "addr:postcode": "92020",
    "addr:state": "CA",
    "addr:street": "East Main Street",
    "amenity": "school",
    "ele": "136",
    "gnis:county_id": "073",
    "gnis:created": "06/14/2000",
    "gnis:feature_id": "238938",
    "gnis:state_id": "06",
    "grades": "0-8",
    "name": "Cajon Valley Union School District",
    "website": "https://cajonvalley.net",
    "id": "node/358780235"
  },
  "geometry": {
    "type": "Point",
    "coordinates": [
      -116.9532526,
      32.7956375
    ]
  }
},
{
  "type": "Feature",
  "id": "node/358780249",
  "properties": {
    "amenity": "school",
    "ele": "102",
    "gnis:county_id": "073",
    "gnis:created": "06/14/2000",
    "gnis:feature_id": "238950",
    "gnis:state_id": "06",
    "name": "Bancroft Community School",
    "id": "node/358780249"
  },
  "geometry": {
    "type": "Point",
    "coordinates": [
      -117.0075272,
      32.7297744
    ]
  }
},
{
  "type": "Feature",
  "id": "node/358780321",
  "properties": {
    "amenity": "school",
    "ele": "278",
    "gnis:county_id": "073",
    "gnis:created": "01/19/1981",
    "gnis:feature_id": "239009",
    "gnis:state_id": "06",
    "name": "Barrett School",
    "id": "node/358780321"
  },
  "geometry": {
    "type": "Point",
    "coordinates": [
      -116.6961297,
      32.6061709
    ]
  }
},
{
  "type": "Feature",
  "id": "node/358780415",
  "properties": {
    "amenity": "school",
    "ele": "4",
    "gnis:county_id": "073",
    "gnis:created": "06/14/2000",
    "gnis:feature_id": "239059",
    "gnis:state_id": "06",
    "name": "Bayside Elementary School",
    "id": "node/358780415"
  },
  "geometry": {
    "type": "Point",
    "coordinates": [
      -117.1128071,
      32.5889442
    ]
  }
},
{
  "type": "Feature",
  "id": "node/358780939",
  "properties": {
    "amenity": "school",
    "ele": "122",
    "gnis:county_id": "073",
    "gnis:created": "06/14/2000",
    "gnis:feature_id": "239523",
    "gnis:state_id": "06",
    "name": "Bobier Elementary School",
    "id": "node/358780939"
  },
  "geometry": {
    "type": "Point",
    "coordinates": [
      -117.2472577,
      33.2203138
    ]
  }
},
{
  "type": "Feature",
  "id": "node/358781008",
  "properties": {
    "amenity": "school",
    "ele": "153",
    "gnis:county_id": "073",
    "gnis:created": "06/14/2000",
    "gnis:feature_id": "239588",
    "gnis:state_id": "06",
    "name": "Bostonia Elementary School",
    "id": "node/358781008"
  },
  "geometry": {
    "type": "Point",
    "coordinates": [
      -116.9312425,
      32.8087165
    ]
  }
},
{
  "type": "Feature",
  "id": "node/358781210",
  "properties": {
    "amenity": "school",
    "ele": "40",
    "gnis:county_id": "073",
    "gnis:created": "06/14/2000",
    "gnis:feature_id": "239800",
    "gnis:state_id": "06",
    "name": "Buena Vista Elementary School",
    "id": "node/358781210"
  },
  "geometry": {
    "type": "Point",
    "coordinates": [
      -117.3422604,
      33.1697596
    ]
  }
},
{
  "type": "Feature",
  "id": "node/358781457",
  "properties": {
    "amenity": "school",
    "ele": "11",
    "gnis:county_id": "073",
    "gnis:created": "01/19/1981",
    "gnis:feature_id": "240039",
    "gnis:state_id": "06",
    "name": "California Western University",
    "id": "node/358781457"
  },
  "geometry": {
    "type": "Point",
    "coordinates": [
      -117.1626698,
      32.7221734
    ]
  }
},
{
  "type": "Feature",
  "id": "node/358781571",
  "properties": {
    "amenity": "school",
    "created_by": "Potlatch 0.10f",
    "ele": "32",
    "gnis:county_id": "073",
    "gnis:created": "06/14/2000",
    "gnis:feature_id": "240236",
    "gnis:state_id": "06",
    "name": "Cardiff Elementary School",
    "id": "node/358781571"
  },
  "geometry": {
    "type": "Point",
    "coordinates": [
      -117.2834488,
      33.0250938
    ]
  }
},
{
  "type": "Feature",
  "id": "node/358781650",
  "properties": {
    "amenity": "school",
    "ele": "184",
    "gnis:county_id": "073",
    "gnis:created": "06/14/2000",
    "gnis:feature_id": "240303",
    "gnis:state_id": "06",
    "name": "Casa de Oro Elementary School",
    "id": "node/358781650"
  },
  "geometry": {
    "type": "Point",
    "coordinates": [
      -116.9736376,
      32.7475521
    ]
  }
},
{
  "type": "Feature",
  "id": "node/358781694",
  "properties": {
    "amenity": "school",
    "ele": "46",
    "gnis:county_id": "073",
    "gnis:created": "06/14/2000",
    "gnis:feature_id": "240336",
    "gnis:state_id": "06",
    "name": "Castle Park Senior High School",
    "id": "node/358781694"
  },
  "geometry": {
    "type": "Point",
    "coordinates": [
      -117.0569718,
      32.6144994
    ]
  }
},
{
  "type": "Feature",
  "id": "node/358781843",
  "properties": {
    "amenity": "school",
    "ele": "19",
    "gnis:county_id": "073",
    "gnis:created": "01/19/1981",
    "gnis:feature_id": "240428",
    "gnis:state_id": "06",
    "name": "Central School",
    "id": "node/358781843"
  },
  "geometry": {
    "type": "Point",
    "coordinates": [
      -117.1014191,
      32.6769973
    ]
  }
},
{
  "type": "Feature",
  "id": "node/358781846",
  "properties": {
    "amenity": "school",
    "ele": "6",
    "gnis:county_id": "073",
    "gnis:created": "06/14/2000",
    "gnis:feature_id": "240429",
    "gnis:state_id": "06",
    "name": "Coronado Village Elementary School",
    "id": "node/358781846"
  },
  "geometry": {
    "type": "Point",
    "coordinates": [
      -117.1830892,
      32.6919963
    ]
  }
},
{
  "type": "Feature",
  "id": "node/358781849",
  "properties": {
    "amenity": "school",
    "created_by": "Potlatch 0.10f",
    "ele": "112",
    "gnis:county_id": "073",
    "gnis:created": "06/14/2000",
    "gnis:feature_id": "240430",
    "gnis:state_id": "06",
    "name": "Central Elementary School",
    "id": "node/358781849"
  },
  "geometry": {
    "type": "Point",
    "coordinates": [
      -117.107563,
      32.7510417
    ]
  }
},
{
  "type": "Feature",
  "id": "node/358781869",
  "properties": {
    "amenity": "school",
    "created_by": "Potlatch 0.10f",
    "ele": "29",
    "gnis:county_id": "073",
    "gnis:created": "06/14/2000",
    "gnis:feature_id": "240436",
    "gnis:state_id": "06",
    "name": "Learning Tree School",
    "id": "node/358781869"
  },
  "geometry": {
    "type": "Point",
    "coordinates": [
      -117.270449,
      32.9948491
    ]
  }
},
{
  "type": "Feature",
  "id": "node/358781974",
  "properties": {
    "amenity": "school",
    "ele": "148",
    "gnis:county_id": "073",
    "gnis:created": "06/14/2000",
    "gnis:feature_id": "240492",
    "gnis:state_id": "06",
    "name": "Chase Elementary School",
    "id": "node/358781974"
  },
  "geometry": {
    "type": "Point",
    "coordinates": [
      -116.9605821,
      32.7797736
    ]
  }
},
{
  "type": "Feature",
  "id": "node/358782106",
  "properties": {
    "amenity": "school",
    "ele": "137",
    "gnis:county_id": "073",
    "gnis:created": "01/19/1981",
    "gnis:feature_id": "240595",
    "gnis:state_id": "06",
    "name": "Christian School",
    "id": "node/358782106"
  },
  "geometry": {
    "type": "Point",
    "coordinates": [
      -117.0322505,
      32.7394961
    ]
  }
},
{
  "type": "Feature",
  "id": "node/358782271",
  "properties": {
    "amenity": "school",
    "ele": "1073",
    "gnis:county_id": "073",
    "gnis:created": "06/14/2000",
    "gnis:feature_id": "240716",
    "gnis:state_id": "06",
    "name": "Clover Flats Elementary School",
    "id": "node/358782271"
  },
  "geometry": {
    "type": "Point",
    "coordinates": [
      -116.2908511,
      32.6689485
    ]
  }
},
{
  "type": "Feature",
  "id": "node/358782357",
  "properties": {
    "amenity": "school",
    "ele": "17",
    "gnis:county_id": "073",
    "gnis:created": "01/19/1981",
    "gnis:feature_id": "240791",
    "gnis:state_id": "06",
    "name": "Collier Junior High School",
    "id": "node/358782357"
  },
  "geometry": {
    "type": "Point",
    "coordinates": [
      -117.2383698,
      32.7478277
    ]
  }
},
{
  "type": "Feature",
  "id": "node/358782542",
  "properties": {
    "amenity": "school",
    "ele": "7",
    "gnis:county_id": "073",
    "gnis:created": "01/19/1981",
    "gnis:feature_id": "240933",
    "gnis:state_id": "06",
    "name": "Coronado High School",
    "wikidata": "Q14681780",
    "id": "node/358782542"
  },
  "geometry": {
    "type": "Point",
    "coordinates": [
      -117.1817002,
      32.6917186
    ]
  }
},
{
  "type": "Feature",
  "id": "node/358782544",
  "properties": {
    "amenity": "school",
    "ele": "7",
    "gnis:county_id": "073",
    "gnis:created": "06/14/2000",
    "gnis:feature_id": "240934",
    "gnis:state_id": "06",
    "name": "Coronado Middle School",
    "id": "node/358782544"
  },
  "geometry": {
    "type": "Point",
    "coordinates": [
      -117.1822559,
      32.691163
    ]
  }
},
{
  "type": "Feature",
  "id": "node/358782645",
  "properties": {
    "amenity": "school",
    "ele": "121",
    "gnis:county_id": "073",
    "gnis:created": "06/14/2000",
    "gnis:feature_id": "241078",
    "gnis:state_id": "06",
    "name": "Crawford Senior High School",
    "id": "node/358782645"
  },
  "geometry": {
    "type": "Point",
    "coordinates": [
      -117.0753215,
      32.7528925
    ]
  }
},
{
  "type": "Feature",
  "id": "node/358782720",
  "properties": {
    "amenity": "school",
    "ele": "15",
    "gnis:county_id": "073",
    "gnis:created": "06/14/2000",
    "gnis:feature_id": "241131",
    "gnis:state_id": "06",
    "name": "Crown Point Elementary School",
    "id": "node/358782720"
  },
  "geometry": {
    "type": "Point",
    "coordinates": [
      -117.2383698,
      32.7931044
    ]
  }
},
{
  "type": "Feature",
  "id": "node/358782723",
  "properties": {
    "amenity": "school",
    "ele": "5",
    "gnis:county_id": "073",
    "gnis:created": "01/19/1981",
    "gnis:feature_id": "241132",
    "gnis:state_id": "06",
    "name": "Crown School",
    "id": "node/358782723"
  },
  "geometry": {
    "type": "Point",
    "coordinates": [
      -117.1888781,
      32.6970088
    ]
  }
},
{
  "type": "Feature",
  "id": "node/358782822",
  "properties": {
    "amenity": "school",
    "ele": "56",
    "gnis:county_id": "073",
    "gnis:created": "01/19/1981",
    "gnis:feature_id": "241238",
    "gnis:state_id": "06",
    "name": "Daly Center Educational Center",
    "id": "node/358782822"
  },
  "geometry": {
    "type": "Point",
    "coordinates": [
      -117.0578054,
      32.6317212
    ]
  }
},
{
  "type": "Feature",
  "id": "node/358782826",
  "properties": {
    "amenity": "school",
    "ele": "63",
    "gnis:county_id": "073",
    "gnis:created": "01/19/1981",
    "gnis:feature_id": "241242",
    "gnis:state_id": "06",
    "name": "Dana Junior High School",
    "wikidata": "Q5214792",
    "id": "node/358782826"
  },
  "geometry": {
    "type": "Point",
    "coordinates": [
      -117.2330413,
      32.7329127
    ]
  }
},
{
  "type": "Feature",
  "id": "node/358782966",
  "properties": {
    "amenity": "school",
    "ele": "47",
    "gnis:county_id": "073",
    "gnis:created": "06/14/2000",
    "gnis:feature_id": "241394",
    "gnis:state_id": "06",
    "name": "Del Mar Heights Elementary School",
    "id": "node/358782966"
  },
  "geometry": {
    "type": "Point",
    "coordinates": [
      -117.2631829,
      32.9526839
    ]
  }
},
{
  "type": "Feature",
  "id": "node/358783066",
  "properties": {
    "amenity": "school",
    "ele": "22",
    "gnis:county_id": "073",
    "gnis:created": "06/14/2000",
    "gnis:feature_id": "241510",
    "gnis:state_id": "06",
    "name": "Ditmar Elementary School",
    "id": "node/358783066"
  },
  "geometry": {
    "type": "Point",
    "coordinates": [
      -117.3680943,
      33.1853145
    ]
  }
},
{
  "type": "Feature",
  "id": "node/358783221",
  "properties": {
    "amenity": "school",
    "ele": "177",
    "gnis:county_id": "073",
    "gnis:created": "06/14/2000",
    "gnis:feature_id": "241675",
    "gnis:state_id": "06",
    "name": "Alvin M Dunn Elementary School",
    "id": "node/358783221"
  },
  "geometry": {
    "type": "Point",
    "coordinates": [
      -117.2036458,
      33.1433722
    ]
  }
},
{
  "type": "Feature",
  "id": "node/358783519",
  "properties": {
    "amenity": "school",
    "ele": "145",
    "gnis:county_id": "073",
    "gnis:created": "01/19/1981",
    "gnis:feature_id": "241874",
    "gnis:state_id": "06",
    "name": "El Cajon Valley Christian School",
    "id": "node/358783519"
  },
  "geometry": {
    "type": "Point",
    "coordinates": [
      -116.9536382,
      32.8253279
    ]
  }
},
{
  "type": "Feature",
  "id": "node/358783522",
  "properties": {
    "amenity": "school",
    "ele": "138",
    "gnis:county_id": "073",
    "gnis:created": "01/19/1981",
    "gnis:feature_id": "241875",
    "gnis:state_id": "06",
    "name": "El Cajon Valley High School",
    "wikidata": "Q5350863",
    "id": "node/358783522"
  },
  "geometry": {
    "type": "Point",
    "coordinates": [
      -116.9465447,
      32.7974103
    ]
  }
},
{
  "type": "Feature",
  "id": "node/358783694",
  "properties": {
    "amenity": "school",
    "ele": "147",
    "gnis:county_id": "073",
    "gnis:created": "06/14/2000",
    "gnis:feature_id": "241995",
    "gnis:state_id": "06",
    "name": "Emerald Intermediate School",
    "id": "node/358783694"
  },
  "geometry": {
    "type": "Point",
    "coordinates": [
      -116.9680823,
      32.7789402
    ]
  }
},
{
  "type": "Feature",
  "id": "node/358783753",
  "properties": {
    "amenity": "school",
    "ele": "80",
    "gnis:county_id": "073",
    "gnis:created": "06/14/2000",
    "gnis:feature_id": "242027",
    "gnis:state_id": "06",
    "name": "Encanto School",
    "id": "node/358783753"
  },
  "geometry": {
    "type": "Point",
    "coordinates": [
      -117.0594734,
      32.7139411
    ]
  }
},
{
  "type": "Feature",
  "id": "node/358783762",
  "properties": {
    "amenity": "school",
    "created_by": "Potlatch 0.10f",
    "ele": "27",
    "gnis:county_id": "073",
    "gnis:created": "06/14/2000",
    "gnis:feature_id": "242033",
    "gnis:state_id": "06",
    "name": "Paul Ecke Central Elementary School",
    "id": "node/358783762"
  },
  "geometry": {
    "type": "Point",
    "coordinates": [
      -117.2970243,
      33.0574546
    ]
  }
},
{
  "type": "Feature",
  "id": "node/358783924",
  "properties": {
    "amenity": "school",
    "ele": "5",
    "gnis:county_id": "073",
    "gnis:created": "01/19/1981",
    "gnis:feature_id": "242143",
    "gnis:state_id": "06",
    "name": "Fairhaven School",
    "id": "node/358783924"
  },
  "geometry": {
    "type": "Point",
    "coordinates": [
      -117.1247535,
      32.6867192
    ]
  }
},
{
  "type": "Feature",
  "id": "node/358783956",
  "properties": {
    "amenity": "school",
    "ele": "161",
    "gnis:county_id": "073",
    "gnis:created": "06/14/2000",
    "gnis:feature_id": "242157",
    "gnis:state_id": "06",
    "name": "Fallbrook High School",
    "id": "node/358783956"
  },
  "geometry": {
    "type": "Point",
    "coordinates": [
      -117.2414241,
      33.3489206
    ]
  }
},
{
  "type": "Feature",
  "id": "node/358783977",
  "properties": {
    "amenity": "school",
    "ele": "14",
    "gnis:county_id": "073",
    "gnis:created": "06/14/2000",
    "gnis:feature_id": "242189",
    "gnis:state_id": "06",
    "name": "Mae L Feaster Elementary School",
    "id": "node/358783977"
  },
  "geometry": {
    "type": "Point",
    "coordinates": [
      -117.0972517,
      32.6414429
    ]
  }
},
{
  "type": "Feature",
  "id": "node/358784134",
  "properties": {
    "amenity": "school",
    "ele": "84",
    "gnis:county_id": "073",
    "gnis:created": "06/14/2000",
    "gnis:feature_id": "242324",
    "gnis:state_id": "06",
    "name": "Florence Elementary School",
    "id": "node/358784134"
  },
  "geometry": {
    "type": "Point",
    "coordinates": [
      -117.1641469,
      32.7485269
    ]
  }
},
{
  "type": "Feature",
  "id": "node/358784140",
  "properties": {
    "amenity": "school",
    "ele": "140",
    "gnis:county_id": "073",
    "gnis:created": "06/14/2000",
    "gnis:feature_id": "242330",
    "gnis:state_id": "06",
    "name": "Flying Hills Elementary School",
    "id": "node/358784140"
  },
  "geometry": {
    "type": "Point",
    "coordinates": [
      -116.9819721,
      32.8119946
    ]
  }
},
{
  "type": "Feature",
  "id": "node/358784227",
  "properties": {
    "amenity": "school",
    "ele": "200",
    "gnis:county_id": "073",
    "gnis:created": "01/19/1981",
    "gnis:feature_id": "242384",
    "gnis:state_id": "06",
    "name": "Forward School",
    "id": "node/358784227"
  },
  "geometry": {
    "type": "Point",
    "coordinates": [
      -117.0186264,
      32.7992338
    ]
  }
},
{
  "type": "Feature",
  "id": "node/358784248",
  "properties": {
    "amenity": "school",
    "ele": "94",
    "gnis:county_id": "073",
    "gnis:created": "06/14/2000",
    "gnis:feature_id": "242396",
    "gnis:state_id": "06",
    "name": "Foster Elementary School",
    "id": "node/358784248"
  },
  "geometry": {
    "type": "Point",
    "coordinates": [
      -117.083642,
      32.7919943
    ]
  }
},
{
  "type": "Feature",
  "id": "node/358784420",
  "properties": {
    "amenity": "school",
    "ele": "12",
    "gnis:county_id": "073",
    "gnis:created": "06/14/2000",
    "gnis:feature_id": "242494",
    "gnis:state_id": "06",
    "name": "Fremont Elementary School",
    "id": "node/358784420"
  },
  "geometry": {
    "type": "Point",
    "coordinates": [
      -117.1934259,
      32.7503361
    ]
  }
},
{
  "type": "Feature",
  "id": "node/358784575",
  "properties": {
    "amenity": "school",
    "ele": "19",
    "gnis:county_id": "073",
    "gnis:created": "01/19/1981",
    "gnis:feature_id": "242607",
    "gnis:state_id": "06",
    "name": "Garden School",
    "id": "node/358784575"
  },
  "geometry": {
    "type": "Point",
    "coordinates": [
      -117.2733703,
      32.990044
    ]
  }
},
{
  "type": "Feature",
  "id": "node/358784607",
  "properties": {
    "amenity": "school",
    "ele": "117",
    "gnis:county_id": "073",
    "gnis:created": "06/14/2000",
    "gnis:feature_id": "242619",
    "gnis:state_id": "06",
    "name": "Garfield High School",
    "id": "node/358784607"
  },
  "geometry": {
    "type": "Point",
    "coordinates": [
      -117.1345463,
      32.7587862
    ]
  }
},
{
  "type": "Feature",
  "id": "node/358784870",
  "properties": {
    "amenity": "school",
    "ele": "138",
    "gnis:county_id": "073",
    "gnis:created": "06/14/2000",
    "gnis:feature_id": "242814",
    "gnis:state_id": "06",
    "name": "Golden Avenue Elementary School",
    "id": "node/358784870"
  },
  "geometry": {
    "type": "Point",
    "coordinates": [
      -117.0294726,
      32.7417184
    ]
  }
},
{
  "type": "Feature",
  "id": "node/358784982",
  "properties": {
    "amenity": "school",
    "ele": "53",
    "gnis:county_id": "073",
    "gnis:created": "01/19/1981",
    "gnis:feature_id": "242904",
    "gnis:state_id": "06",
    "name": "Granger Junior High School",
    "id": "node/358784982"
  },
  "geometry": {
    "type": "Point",
    "coordinates": [
      -117.0736401,
      32.6725533
    ]
  }
},
{
  "type": "Feature",
  "id": "node/358785474",
  "properties": {
    "amenity": "school",
    "created_by": "Potlatch 0.10f",
    "ele": "78",
    "gnis:county_id": "073",
    "gnis:created": "06/14/2000",
    "gnis:feature_id": "243249",
    "gnis:state_id": "06",
    "name": "Ada W Harris Elementary School",
    "id": "node/358785474"
  },
  "geometry": {
    "type": "Point",
    "coordinates": [
      -117.274325,
      33.0313903
    ]
  }
},
{
  "type": "Feature",
  "id": "node/358785782",
  "properties": {
    "amenity": "school",
    "ele": "16",
    "gnis:county_id": "073",
    "gnis:created": "06/14/2000",
    "gnis:feature_id": "243451",
    "gnis:state_id": "06",
    "name": "John A Otis School",
    "id": "node/358785782"
  },
  "geometry": {
    "type": "Point",
    "coordinates": [
      -117.0969743,
      32.6694976
    ]
  }
},
{
  "type": "Feature",
  "id": "node/358785868",
  "properties": {
    "amenity": "school",
    "ele": "51",
    "gnis:county_id": "073",
    "gnis:created": "06/14/2000",
    "gnis:feature_id": "243485",
    "gnis:state_id": "06",
    "name": "Hilltop Middle School",
    "id": "node/358785868"
  },
  "geometry": {
    "type": "Point",
    "coordinates": [
      -117.0605833,
      32.6306101
    ]
  }
},
{
  "type": "Feature",
  "id": "node/358786018",
  "properties": {
    "amenity": "school",
    "ele": "97",
    "gnis:county_id": "073",
    "gnis:created": "01/19/1981",
    "gnis:feature_id": "243582",
    "gnis:state_id": "06",
    "name": "Holy Family School",
    "id": "node/358786018"
  },
  "geometry": {
    "type": "Point",
    "coordinates": [
      -117.1692005,
      32.7800496
    ]
  }
},
{
  "type": "Feature",
  "id": "node/358786511",
  "properties": {
    "amenity": "school",
    "ele": "59",
    "gnis:county_id": "073",
    "gnis:created": "01/19/1981",
    "gnis:feature_id": "244018",
    "gnis:state_id": "06",
    "name": "Jefferson Junior High School",
    "id": "node/358786511"
  },
  "geometry": {
    "type": "Point",
    "coordinates": [
      -117.3633718,
      33.2103137
    ]
  }
},
{
  "type": "Feature",
  "id": "node/358786521",
  "properties": {
    "amenity": "school",
    "ele": "107",
    "gnis:county_id": "073",
    "gnis:created": "06/14/2000",
    "gnis:feature_id": "244021",
    "gnis:state_id": "06",
    "name": "Jefferson Elementary School",
    "id": "node/358786521"
  },
  "geometry": {
    "type": "Point",
    "coordinates": [
      -117.1336435,
      32.7475507
    ]
  }
},
{
  "type": "Feature",
  "id": "node/358786525",
  "properties": {
    "amenity": "school",
    "ele": "18",
    "gnis:county_id": "073",
    "gnis:created": "06/14/2000",
    "gnis:feature_id": "244022",
    "gnis:state_id": "06",
    "name": "Jefferson Elementary School",
    "id": "node/358786525"
  },
  "geometry": {
    "type": "Point",
    "coordinates": [
      -117.3399835,
      33.1518603
    ]
  }
},
{
  "type": "Feature",
  "id": "node/358786678",
  "properties": {
    "amenity": "school",
    "ele": "129",
    "gnis:county_id": "073",
    "gnis:created": "06/14/2000",
    "gnis:feature_id": "244100",
    "gnis:state_id": "06",
    "name": "Johnson Avenue Elementary School",
    "id": "node/358786678"
  },
  "geometry": {
    "type": "Point",
    "coordinates": [
      -116.9697494,
      32.8014395
    ]
  }
},
{
  "type": "Feature",
  "id": "node/358786682",
  "properties": {
    "amenity": "school",
    "ele": "86",
    "gnis:county_id": "073",
    "gnis:created": "06/14/2000",
    "gnis:feature_id": "244112",
    "gnis:state_id": "06",
    "name": "Johnson Elementary School",
    "id": "node/358786682"
  },
  "geometry": {
    "type": "Point",
    "coordinates": [
      -117.075863,
      32.7200519
    ]
  }
},
{
  "type": "Feature",
  "id": "node/358786827",
  "properties": {
    "amenity": "school",
    "ele": "99",
    "gnis:county_id": "073",
    "gnis:created": "06/14/2000",
    "gnis:feature_id": "244217",
    "gnis:state_id": "06",
    "name": "Keiller Middle School",
    "id": "node/358786827"
  },
  "geometry": {
    "type": "Point",
    "coordinates": [
      -117.0433988,
      32.7125429
    ]
  }
},
{
  "type": "Feature",
  "id": "node/358786838",
  "properties": {
    "amenity": "school",
    "ele": "68",
    "gnis:county_id": "073",
    "gnis:created": "06/14/2000",
    "gnis:feature_id": "244223",
    "gnis:state_id": "06",
    "name": "Karl H Kellogg Elementary School",
    "id": "node/358786838"
  },
  "geometry": {
    "type": "Point",
    "coordinates": [
      -117.0483604,
      32.6203327
    ]
  }
},
{
  "type": "Feature",
  "id": "node/358786854",
  "properties": {
    "amenity": "school",
    "ele": "93",
    "gnis:county_id": "073",
    "gnis:created": "06/14/2000",
    "gnis:feature_id": "244240",
    "gnis:state_id": "06",
    "name": "Kempton Street Elementary School",
    "id": "node/358786854"
  },
  "geometry": {
    "type": "Point",
    "coordinates": [
      -117.001971,
      32.7108861
    ]
  }
},
{
  "type": "Feature",
  "id": "node/358786950",
  "properties": {
    "amenity": "school",
    "ele": "6",
    "gnis:county_id": "073",
    "gnis:created": "01/19/1981",
    "gnis:feature_id": "244302",
    "gnis:state_id": "06",
    "name": "Kimball School",
    "id": "node/358786950"
  },
  "geometry": {
    "type": "Point",
    "coordinates": [
      -117.1064191,
      32.6658865
    ]
  }
},
{
  "type": "Feature",
  "id": "node/358787306",
  "properties": {
    "amenity": "school",
    "ele": "119",
    "gnis:county_id": "073",
    "gnis:created": "06/14/2000",
    "gnis:feature_id": "244540",
    "gnis:state_id": "06",
    "name": "Lakeside Farms Elementary School",
    "id": "node/358787306"
  },
  "geometry": {
    "type": "Point",
    "coordinates": [
      -116.9369716,
      32.8667158
    ]
  }
},
{
  "type": "Feature",
  "id": "node/358787316",
  "properties": {
    "amenity": "school",
    "ele": "118",
    "gnis:county_id": "073",
    "gnis:created": "06/14/2000",
    "gnis:feature_id": "244543",
    "gnis:state_id": "06",
    "name": "Lakeside Middle School",
    "id": "node/358787316"
  },
  "geometry": {
    "type": "Point",
    "coordinates": [
      -116.9383605,
      32.8545903
    ]
  }
},
{
  "type": "Feature",
  "id": "node/358787425",
  "properties": {
    "amenity": "school",
    "ele": "26",
    "gnis:county_id": "073",
    "gnis:created": "01/19/1981",
    "gnis:feature_id": "244622",
    "gnis:state_id": "06",
    "name": "Las Palmas School",
    "id": "node/358787425"
  },
  "geometry": {
    "type": "Point",
    "coordinates": [
      -117.084196,
      32.6714421
    ]
  }
},
{
  "type": "Feature",
  "id": "node/358787480",
  "properties": {
    "amenity": "school",
    "ele": "40",
    "gnis:county_id": "073",
    "gnis:created": "06/14/2000",
    "gnis:feature_id": "244653",
    "gnis:state_id": "06",
    "name": "Laurel Elementary School",
    "id": "node/358787480"
  },
  "geometry": {
    "type": "Point",
    "coordinates": [
      -117.3733721,
      33.2075359
    ]
  }
},
{
  "type": "Feature",
  "id": "node/358787662",
  "properties": {
    "amenity": "school",
    "ele": "27",
    "gnis:county_id": "073",
    "gnis:created": "06/14/2000",
    "gnis:feature_id": "244776",
    "gnis:state_id": "06",
    "name": "Libby Elementary School",
    "id": "node/358787662"
  },
  "geometry": {
    "type": "Point",
    "coordinates": [
      -117.3055924,
      33.2517014
    ]
  }
},
{
  "type": "Feature",
  "id": "node/358787702",
  "properties": {
    "amenity": "school",
    "ele": "49",
    "gnis:county_id": "073",
    "gnis:created": "06/14/2000",
    "gnis:feature_id": "244811",
    "gnis:state_id": "06",
    "name": "Lincoln Middle School",
    "id": "node/358787702"
  },
  "geometry": {
    "type": "Point",
    "coordinates": [
      -117.3511494,
      33.189481
    ]
  }
},
{
  "type": "Feature",
  "id": "node/358787854",
  "properties": {
    "amenity": "school",
    "ele": "111",
    "gnis:county_id": "073",
    "gnis:created": "06/14/2000",
    "gnis:feature_id": "244859",
    "gnis:state_id": "06",
    "name": "Linda Vista Elementary School",
    "id": "node/358787854"
  },
  "geometry": {
    "type": "Point",
    "coordinates": [
      -117.1736523,
      32.7930199
    ]
  }
},
{
  "type": "Feature",
  "id": "node/358788062",
  "properties": {
    "amenity": "school",
    "ele": "87",
    "gnis:county_id": "073",
    "gnis:created": "06/14/2000",
    "gnis:feature_id": "245088",
    "gnis:state_id": "06",
    "name": "Longfellow Elementary School",
    "id": "node/358788062"
  },
  "geometry": {
    "type": "Point",
    "coordinates": [
      -117.1889896,
      32.7834772
    ]
  }
},
{
  "type": "Feature",
  "id": "node/358788322",
  "properties": {
    "amenity": "school",
    "ele": "158",
    "gnis:county_id": "073",
    "gnis:created": "01/19/1981",
    "gnis:feature_id": "245306",
    "gnis:state_id": "06",
    "name": "Christ Lutheran School",
    "id": "node/358788322"
  },
  "geometry": {
    "type": "Point",
    "coordinates": [
      -117.0281833,
      32.7661796
    ]
  }
},
{
  "type": "Feature",
  "id": "node/358788450",
  "properties": {
    "amenity": "school",
    "ele": "61",
    "gnis:county_id": "073",
    "gnis:created": "06/14/2000",
    "gnis:feature_id": "245374",
    "gnis:state_id": "06",
    "name": "Magnolia Elementary School",
    "id": "node/358788450"
  },
  "geometry": {
    "type": "Point",
    "coordinates": [
      -117.3269536,
      33.1589792
    ]
  }
},
{
  "type": "Feature",
  "id": "node/358788639",
  "properties": {
    "amenity": "school",
    "ele": "38",
    "gnis:county_id": "073",
    "gnis:created": "01/19/1981",
    "gnis:feature_id": "245527",
    "gnis:state_id": "06",
    "name": "Maris Academy",
    "id": "node/358788639"
  },
  "geometry": {
    "type": "Point",
    "coordinates": [
      -117.2722596,
      32.8442141
    ]
  }
},
{
  "type": "Feature",
  "id": "node/358788748",
  "properties": {
    "amenity": "school",
    "ele": "150",
    "gnis:county_id": "073",
    "gnis:created": "06/14/2000",
    "gnis:feature_id": "245585",
    "gnis:state_id": "06",
    "name": "Maryland Avenue Elementary School",
    "id": "node/358788748"
  },
  "geometry": {
    "type": "Point",
    "coordinates": [
      -117.0383623,
      32.7761618
    ]
  }
},
{
  "type": "Feature",
  "id": "node/358789202",
  "properties": {
    "amenity": "school",
    "ele": "108",
    "gnis:county_id": "073",
    "gnis:created": "01/19/1981",
    "gnis:edited": "01/04/2008",
    "gnis:feature_id": "245980",
    "gnis:state_id": "06",
    "name": "Miracosta College",
    "id": "node/358789202"
  },
  "geometry": {
    "type": "Point",
    "coordinates": [
      -117.3022592,
      33.1900369
    ]
  }
},
{
  "type": "Feature",
  "id": "node/358789212",
  "properties": {
    "amenity": "school",
    "ele": "4",
    "gnis:county_id": "073",
    "gnis:created": "01/19/1981",
    "gnis:feature_id": "245996",
    "gnis:state_id": "06",
    "name": "Mission Beach School",
    "id": "node/358789212"
  },
  "geometry": {
    "type": "Point",
    "coordinates": [
      -117.2511481,
      32.7742158
    ]
  }
},
{
  "type": "Feature",
  "id": "node/358789248",
  "properties": {
    "amenity": "school",
    "ele": "55",
    "gnis:county_id": "073",
    "gnis:created": "06/14/2000",
    "gnis:feature_id": "246027",
    "gnis:state_id": "06",
    "name": "Mission Elementary School",
    "id": "node/358789248"
  },
  "geometry": {
    "type": "Point",
    "coordinates": [
      -117.3625385,
      33.2078138
    ]
  }
},
{
  "type": "Feature",
  "id": "node/358789384",
  "properties": {
    "amenity": "school",
    "ele": "112",
    "gnis:county_id": "073",
    "gnis:created": "01/19/1981",
    "gnis:feature_id": "246146",
    "gnis:state_id": "06",
    "name": "Montgomery Junior High School",
    "id": "node/358789384"
  },
  "geometry": {
    "type": "Point",
    "coordinates": [
      -117.1721236,
      32.7877526
    ]
  }
},
{
  "type": "Feature",
  "id": "node/358789515",
  "properties": {
    "amenity": "school",
    "ele": "144",
    "gnis:county_id": "073",
    "gnis:created": "06/14/2000",
    "gnis:feature_id": "246279",
    "gnis:state_id": "06",
    "name": "Mount Vernon Elementary School",
    "id": "node/358789515"
  },
  "geometry": {
    "type": "Point",
    "coordinates": [
      -117.0210403,
      32.7323282
    ]
  }
},
{
  "type": "Feature",
  "id": "node/358789574",
  "properties": {
    "amenity": "school",
    "ele": "141",
    "gnis:county_id": "073",
    "gnis:created": "06/14/2000",
    "gnis:feature_id": "246339",
    "gnis:state_id": "06",
    "name": "Muir Alternative Loop School",
    "id": "node/358789574"
  },
  "geometry": {
    "type": "Point",
    "coordinates": [
      -117.0494738,
      32.7703285
    ]
  }
},
{
  "type": "Feature",
  "id": "node/358789608",
  "properties": {
    "amenity": "school",
    "ele": "186",
    "gnis:county_id": "073",
    "gnis:created": "06/14/2000",
    "gnis:feature_id": "246389",
    "gnis:state_id": "06",
    "name": "Murray Manor Elementary School",
    "id": "node/358789608"
  },
  "geometry": {
    "type": "Point",
    "coordinates": [
      -117.0197018,
      32.7879104
    ]
  }
},
{
  "type": "Feature",
  "id": "node/358789626",
  "properties": {
    "amenity": "school",
    "ele": "137",
    "gnis:county_id": "073",
    "gnis:created": "06/14/2000",
    "gnis:feature_id": "246430",
    "gnis:state_id": "06",
    "name": "Naranca Elementary School",
    "id": "node/358789626"
  },
  "geometry": {
    "type": "Point",
    "coordinates": [
      -116.9480821,
      32.8044952
    ]
  }
},
{
  "type": "Feature",
  "id": "node/358789840",
  "properties": {
    "amenity": "school",
    "ele": "47",
    "gnis:county_id": "073",
    "gnis:created": "06/14/2000",
    "gnis:feature_id": "246655",
    "gnis:state_id": "06",
    "name": "North Terrace Elementary School",
    "id": "node/358789840"
  },
  "geometry": {
    "type": "Point",
    "coordinates": [
      -117.37865,
      33.2172578
    ]
  }
},
{
  "type": "Feature",
  "id": "node/358789915",
  "properties": {
    "amenity": "school",
    "ele": "211",
    "gnis:county_id": "073",
    "gnis:created": "06/14/2000",
    "gnis:feature_id": "246735",
    "gnis:state_id": "06",
    "name": "Oak Hill Elementary School",
    "id": "node/358789915"
  },
  "geometry": {
    "type": "Point",
    "coordinates": [
      -117.0503088,
      33.1308731
    ]
  }
},
{
  "type": "Feature",
  "id": "node/358789980",
  "properties": {
    "amenity": "school",
    "ele": "13",
    "gnis:county_id": "073",
    "gnis:created": "06/14/2000",
    "gnis:feature_id": "246802",
    "gnis:state_id": "06",
    "name": "Ocean Beach Elementary School",
    "id": "node/358789980"
  },
  "geometry": {
    "type": "Point",
    "coordinates": [
      -117.2470052,
      32.7450164
    ]
  }
},
{
  "type": "Feature",
  "id": "node/358790036",
  "properties": {
    "amenity": "school",
    "ele": "109",
    "gnis:county_id": "073",
    "gnis:created": "06/14/2000",
    "gnis:feature_id": "246885",
    "gnis:state_id": "06",
    "name": "Olive Elementary School",
    "id": "node/358790036"
  },
  "geometry": {
    "type": "Point",
    "coordinates": [
      -117.2603025,
      33.2036134
    ]
  }
},
{
  "type": "Feature",
  "id": "node/358790049",
  "properties": {
    "amenity": "school",
    "ele": "18",
    "gnis:county_id": "073",
    "gnis:created": "01/19/1981",
    "gnis:feature_id": "246895",
    "gnis:state_id": "06",
    "name": "Olivewood School",
    "id": "node/358790049"
  },
  "geometry": {
    "type": "Point",
    "coordinates": [
      -117.0947519,
      32.6628312
    ]
  }
},
{
  "type": "Feature",
  "id": "node/358790093",
  "properties": {
    "amenity": "school",
    "ele": "219",
    "gnis:county_id": "073",
    "gnis:created": "06/14/2000",
    "gnis:feature_id": "246938",
    "gnis:state_id": "06",
    "name": "Orange Glen Elementary School",
    "id": "node/358790093"
  },
  "geometry": {
    "type": "Point",
    "coordinates": [
      -117.0355862,
      33.1453171
    ]
  }
},
{
  "type": "Feature",
  "id": "node/358790141",
  "properties": {
    "amenity": "school",
    "ele": "39",
    "gnis:county_id": "073",
    "gnis:created": "01/19/1981",
    "gnis:feature_id": "247010",
    "gnis:state_id": "06",
    "name": "Our Lady of Angels School",
    "id": "node/358790141"
  },
  "geometry": {
    "type": "Point",
    "coordinates": [
      -117.1439213,
      32.7117183
    ]
  }
},
{
  "type": "Feature",
  "id": "node/358790151",
  "properties": {
    "amenity": "school",
    "ele": "219",
    "gnis:county_id": "073",
    "gnis:created": "01/19/1981",
    "gnis:feature_id": "247014",
    "gnis:state_id": "06",
    "name": "Our Lady of Grace School",
    "id": "node/358790151"
  },
  "geometry": {
    "type": "Point",
    "coordinates": [
      -117.0036393,
      32.8033834
    ]
  }
},
{
  "type": "Feature",
  "id": "node/358790172",
  "properties": {
    "amenity": "school",
    "ele": "102",
    "gnis:county_id": "073",
    "gnis:created": "01/19/1981",
    "gnis:feature_id": "247025",
    "gnis:state_id": "06",
    "name": "Our Lady of Mercy School",
    "id": "node/358790172"
  },
  "geometry": {
    "type": "Point",
    "coordinates": [
      -117.07753,
      32.7344959
    ]
  }
},
{
  "type": "Feature",
  "id": "node/358790177",
  "properties": {
    "amenity": "school",
    "ele": "130",
    "gnis:county_id": "073",
    "gnis:created": "01/19/1981",
    "gnis:feature_id": "247027",
    "gnis:state_id": "06",
    "name": "Our Lady of Perpetual Help School",
    "id": "node/358790177"
  },
  "geometry": {
    "type": "Point",
    "coordinates": [
      -116.9089152,
      32.859494
    ]
  }
},
{
  "type": "Feature",
  "id": "node/358790211",
  "properties": {
    "amenity": "school",
    "ele": "28",
    "gnis:county_id": "073",
    "gnis:created": "06/14/2000",
    "gnis:feature_id": "247066",
    "gnis:state_id": "06",
    "name": "Pacific Beach Middle School",
    "id": "node/358790211"
  },
  "geometry": {
    "type": "Point",
    "coordinates": [
      -117.2423066,
      32.8021826
    ]
  }
},
{
  "type": "Feature",
  "id": "node/358790214",
  "properties": {
    "amenity": "school",
    "ele": "51",
    "gnis:county_id": "073",
    "gnis:created": "06/14/2000",
    "gnis:feature_id": "247068",
    "gnis:state_id": "06",
    "name": "Pacific Beach Elementary School",
    "id": "node/358790214"
  },
  "geometry": {
    "type": "Point",
    "coordinates": [
      -117.2506053,
      32.8092887
    ]
  }
},
{
  "type": "Feature",
  "id": "node/358790235",
  "properties": {
    "amenity": "school",
    "ele": "25",
    "gnis:county_id": "073",
    "gnis:created": "06/14/2000",
    "gnis:feature_id": "247081",
    "gnis:state_id": "06",
    "name": "Pacific View Elementary School",
    "id": "node/358790235"
  },
  "geometry": {
    "type": "Point",
    "coordinates": [
      -117.2958708,
      33.0439309
    ]
  }
},
{
  "type": "Feature",
  "id": "node/358790276",
  "properties": {
    "amenity": "school",
    "ele": "150",
    "gnis:county_id": "073",
    "gnis:created": "06/14/2000",
    "gnis:feature_id": "247134",
    "gnis:state_id": "06",
    "name": "Palm Middle School",
    "id": "node/358790276"
  },
  "geometry": {
    "type": "Point",
    "coordinates": [
      -117.0190768,
      32.7342191
    ]
  }
},
{
  "type": "Feature",
  "id": "node/358790304",
  "properties": {
    "amenity": "school",
    "ele": "45",
    "gnis:county_id": "073",
    "gnis:created": "06/14/2000",
    "gnis:feature_id": "247157",
    "gnis:state_id": "06",
    "name": "Palmquist Elementary School",
    "id": "node/358790304"
  },
  "geometry": {
    "type": "Point",
    "coordinates": [
      -117.3508716,
      33.1878145
    ]
  }
},
{
  "type": "Feature",
  "id": "node/358790373",
  "properties": {
    "amenity": "school",
    "ele": "67",
    "gnis:county_id": "073",
    "gnis:created": "06/14/2000",
    "gnis:feature_id": "247230",
    "gnis:state_id": "06",
    "name": "Paradise Elementary School",
    "id": "node/358790373"
  },
  "geometry": {
    "type": "Point",
    "coordinates": [
      -117.0680843,
      32.6797753
    ]
  }
},
{
  "type": "Feature",
  "id": "node/358790409",
  "properties": {
    "addr:housenumber": "4201",
    "amenity": "school",
    "ele": "85",
    "gnis:county_id": "073",
    "gnis:created": "01/19/1981",
    "gnis:feature_id": "247262",
    "gnis:state_id": "06",
    "name": "Parker School",
    "website": "http://francisparker.org",
    "id": "node/358790409"
  },
  "geometry": {
    "type": "Point",
    "coordinates": [
      -117.176426,
      32.7540728
    ]
  }
},
{
  "type": "Feature",
  "id": "node/358790510",
  "properties": {
    "amenity": "school",
    "ele": "98",
    "gnis:county_id": "073",
    "gnis:created": "06/14/2000",
    "gnis:feature_id": "247368",
    "gnis:state_id": "06",
    "name": "Mary Fay Pendleton Elementary School",
    "id": "node/358790510"
  },
  "geometry": {
    "type": "Point",
    "coordinates": [
      -117.3053147,
      33.3250322
    ]
  }
},
{
  "type": "Feature",
  "id": "node/358790523",
  "properties": {
    "amenity": "school",
    "ele": "151",
    "gnis:county_id": "073",
    "gnis:created": "06/14/2000",
    "gnis:feature_id": "247378",
    "gnis:state_id": "06",
    "name": "Pepper Drive Elementary School",
    "id": "node/358790523"
  },
  "geometry": {
    "type": "Point",
    "coordinates": [
      -116.953916,
      32.8275501
    ]
  }
},
{
  "type": "Feature",
  "id": "node/358790614",
  "properties": {
    "amenity": "school",
    "ele": "19",
    "gnis:county_id": "073",
    "gnis:created": "06/14/2000",
    "gnis:feature_id": "247478",
    "gnis:state_id": "06",
    "name": "Pine Elementary School",
    "id": "node/358790614"
  },
  "geometry": {
    "type": "Point",
    "coordinates": [
      -117.3422604,
      33.158371
    ]
  }
},
{
  "type": "Feature",
  "id": "node/358790811",
  "properties": {
    "amenity": "school",
    "ele": "204",
    "gnis:county_id": "073",
    "gnis:created": "01/19/1981",
    "gnis:feature_id": "247746",
    "gnis:state_id": "06",
    "name": "Potter Junior High School",
    "id": "node/358790811"
  },
  "geometry": {
    "type": "Point",
    "coordinates": [
      -117.2219789,
      33.3683644
    ]
  }
},
{
  "type": "Feature",
  "id": "node/358790859",
  "properties": {
    "amenity": "school",
    "ele": "107",
    "gnis:county_id": "073",
    "gnis:created": "01/19/1981",
    "gnis:feature_id": "247800",
    "gnis:state_id": "06",
    "name": "PRIDE Academy at Prospect Avenue",
    "id": "node/358790859"
  },
  "geometry": {
    "type": "Point",
    "coordinates": [
      -116.995861,
      32.8333827
    ]
  }
},
{
  "type": "Feature",
  "id": "node/358790972",
  "properties": {
    "amenity": "school",
    "ele": "88",
    "gnis:county_id": "073",
    "gnis:created": "06/14/2000",
    "gnis:feature_id": "247972",
    "gnis:state_id": "06",
    "name": "Rancho Elementary School",
    "id": "node/358790972"
  },
  "geometry": {
    "type": "Point",
    "coordinates": [
      -117.0161382,
      32.7044972
    ]
  }
},
{
  "type": "Feature",
  "id": "node/358791118",
  "properties": {
    "amenity": "school",
    "ele": "216",
    "gnis:county_id": "073",
    "gnis:created": "06/14/2000",
    "gnis:feature_id": "248174",
    "gnis:state_id": "06",
    "name": "Richland Elementary School",
    "religion": "none",
    "id": "node/358791118"
  },
  "geometry": {
    "type": "Point",
    "coordinates": [
      -117.1405887,
      33.1550387
    ]
  }
},
{
  "type": "Feature",
  "id": "node/358791293",
  "properties": {
    "addr:housenumber": "3366",
    "addr:postcode": "92103",
    "addr:street": "Park Boulevard",
    "amenity": "school",
    "created_by": "Potlatch 0.10f",
    "ele": "91",
    "gnis:county_id": "073",
    "gnis:created": "01/19/1981",
    "gnis:feature_id": "248348",
    "gnis:state_id": "06",
    "name": "Roosevelt Middle School",
    "phone": "619-293-4450",
    "website": "https://www.sandiegounified.org/schools/roosevelt",
    "id": "node/358791293"
  },
  "geometry": {
    "type": "Point",
    "coordinates": [
      -117.1503398,
      32.7402614
    ]
  }
},
{
  "type": "Feature",
  "id": "node/358791324",
  "properties": {
    "amenity": "school",
    "ele": "113",
    "gnis:county_id": "073",
    "gnis:created": "01/19/1981",
    "gnis:feature_id": "248370",
    "gnis:state_id": "06",
    "name": "Rosary High School",
    "id": "node/358791324"
  },
  "geometry": {
    "type": "Point",
    "coordinates": [
      -117.1041979,
      32.752273
    ]
  }
},
{
  "type": "Feature",
  "id": "node/358791376",
  "properties": {
    "amenity": "school",
    "ele": "115",
    "gnis:county_id": "073",
    "gnis:created": "06/14/2000",
    "gnis:feature_id": "248409",
    "gnis:state_id": "06",
    "name": "Ross Elementary School",
    "id": "node/358791376"
  },
  "geometry": {
    "type": "Point",
    "coordinates": [
      -117.1615184,
      32.8117796
    ]
  }
},
{
  "type": "Feature",
  "id": "node/358791464",
  "properties": {
    "amenity": "school",
    "denomination": "roman_catholic",
    "ele": "0",
    "gnis:county_id": "073",
    "gnis:created": "01/19/1981",
    "gnis:feature_id": "248504",
    "gnis:state_id": "06",
    "name": "Sacred Heart Preschool",
    "religion": "christian",
    "website": "http://www.sacredheartpreschool.org/",
    "id": "node/358791464"
  },
  "geometry": {
    "type": "Point",
    "coordinates": [
      -117.2477928,
      32.7472135
    ]
  }
},
{
  "type": "Feature",
  "id": "node/358791472",
  "properties": {
    "amenity": "school",
    "ele": "7",
    "gnis:county_id": "073",
    "gnis:created": "01/19/1981",
    "gnis:feature_id": "248507",
    "gnis:state_id": "06",
    "name": "Sacred Heart School",
    "id": "node/358791472"
  },
  "geometry": {
    "type": "Point",
    "coordinates": [
      -117.1800335,
      32.6894964
    ]
  }
},
{
  "type": "Feature",
  "id": "node/358791504",
  "properties": {
    "amenity": "school",
    "ele": "64",
    "gnis:county_id": "073",
    "gnis:created": "01/19/1981",
    "gnis:feature_id": "248523",
    "gnis:state_id": "06",
    "name": "Saint Agnes School",
    "id": "node/358791504"
  },
  "geometry": {
    "type": "Point",
    "coordinates": [
      -117.241703,
      32.7233838
    ]
  }
},
{
  "type": "Feature",
  "id": "node/358791510",
  "properties": {
    "amenity": "school",
    "ele": "135",
    "gnis:county_id": "073",
    "gnis:created": "01/19/1981",
    "gnis:feature_id": "248525",
    "gnis:state_id": "06",
    "name": "Saint Albans School",
    "id": "node/358791510"
  },
  "geometry": {
    "type": "Point",
    "coordinates": [
      -116.962249,
      32.7906066
    ]
  }
},
{
  "type": "Feature",
  "id": "node/358791526",
  "properties": {
    "amenity": "school",
    "ele": "177",
    "gnis:county_id": "073",
    "gnis:created": "01/19/1981",
    "gnis:feature_id": "248533",
    "gnis:state_id": "06",
    "name": "Saint Andrews School",
    "id": "node/358791526"
  },
  "geometry": {
    "type": "Point",
    "coordinates": [
      -117.0105834,
      32.7672733
    ]
  }
},
{
  "type": "Feature",
  "id": "node/358791615",
  "properties": {
    "amenity": "school",
    "ele": "8",
    "gnis:county_id": "073",
    "gnis:created": "01/19/1981",
    "gnis:feature_id": "248576",
    "gnis:state_id": "06",
    "name": "Saint Charles School",
    "id": "node/358791615"
  },
  "geometry": {
    "type": "Point",
    "coordinates": [
      -117.0944729,
      32.5803335
    ]
  }
},
{
  "type": "Feature",
  "id": "node/358791632",
  "properties": {
    "amenity": "school",
    "ele": "121",
    "gnis:county_id": "073",
    "gnis:created": "01/19/1981",
    "gnis:feature_id": "248583",
    "gnis:state_id": "06",
    "name": "Saint Columbia School",
    "id": "node/358791632"
  },
  "geometry": {
    "type": "Point",
    "coordinates": [
      -117.1332397,
      32.8043516
    ]
  }
},
{
  "type": "Feature",
  "id": "node/358791675",
  "properties": {
    "amenity": "school",
    "ele": "99",
    "gnis:county_id": "073",
    "gnis:created": "01/19/1981",
    "gnis:feature_id": "248604",
    "gnis:state_id": "06",
    "name": "Saint Francis School",
    "id": "node/358791675"
  },
  "geometry": {
    "type": "Point",
    "coordinates": [
      -117.2534483,
      33.1963761
    ]
  }
},
{
  "type": "Feature",
  "id": "node/358791682",
  "properties": {
    "amenity": "school",
    "ele": "203",
    "gnis:county_id": "073",
    "gnis:created": "01/19/1981",
    "gnis:edited": "01/04/2008",
    "gnis:feature_id": "248607",
    "gnis:state_id": "06",
    "name": "Southern California Seminary",
    "wikidata": "Q30263423",
    "id": "node/358791682"
  },
  "geometry": {
    "type": "Point",
    "coordinates": [
      -116.9058587,
      32.7994959
    ]
  }
},
{
  "type": "Feature",
  "id": "node/358791734",
  "properties": {
    "amenity": "school",
    "ele": "134",
    "gnis:county_id": "073",
    "gnis:created": "01/19/1981",
    "gnis:feature_id": "248629",
    "gnis:state_id": "06",
    "name": "Saint John of the Cross School",
    "id": "node/358791734"
  },
  "geometry": {
    "type": "Point",
    "coordinates": [
      -117.023917,
      32.7450516
    ]
  }
},
{
  "type": "Feature",
  "id": "node/358791745",
  "properties": {
    "amenity": "school",
    "ele": "21",
    "gnis:county_id": "073",
    "gnis:created": "01/19/1981",
    "gnis:feature_id": "248636",
    "gnis:state_id": "06",
    "name": "Saint John School",
    "id": "node/358791745"
  },
  "geometry": {
    "type": "Point",
    "coordinates": [
      -117.298093,
      33.0547638
    ]
  }
},
{
  "type": "Feature",
  "id": "node/358791752",
  "properties": {
    "addr:city": "Chula Vista",
    "addr:housenumber": "760",
    "addr:postcode": "91910",
    "addr:street": "1st Avenue",
    "amenity": "school",
    "gnis:feature_id": "248641",
    "name": "Saint John's Episcopal Parish Day School",
    "phone": "619-422-4141",
    "website": "http://www.saint-johnsschool.org/",
    "id": "node/358791752"
  },
  "geometry": {
    "type": "Point",
    "coordinates": [
      -117.0657783,
      32.627011
    ]
  }
},
{
  "type": "Feature",
  "id": "node/358791755",
  "properties": {
    "amenity": "school",
    "ele": "100",
    "gnis:county_id": "073",
    "gnis:created": "01/19/1981",
    "gnis:feature_id": "248642",
    "gnis:state_id": "06",
    "name": "Saint Johns School",
    "id": "node/358791755"
  },
  "geometry": {
    "type": "Point",
    "coordinates": [
      -117.1480107,
      32.7512724
    ]
  }
},
{
  "type": "Feature",
  "id": "node/358791770",
  "properties": {
    "amenity": "school",
    "ele": "25",
    "gnis:county_id": "073",
    "gnis:created": "01/19/1981",
    "gnis:feature_id": "248649",
    "gnis:state_id": "06",
    "name": "Saint Joseph School",
    "id": "node/358791770"
  },
  "geometry": {
    "type": "Point",
    "coordinates": [
      -117.1636444,
      32.7214401
    ]
  }
},
{
  "type": "Feature",
  "id": "node/358791834",
  "properties": {
    "amenity": "school",
    "ele": "171",
    "gnis:county_id": "073",
    "gnis:created": "01/19/1981",
    "gnis:feature_id": "248675",
    "gnis:state_id": "06",
    "name": "Saint Martins Academy",
    "id": "node/358791834"
  },
  "geometry": {
    "type": "Point",
    "coordinates": [
      -117.0311398,
      32.7694953
    ]
  }
},
{
  "type": "Feature",
  "id": "node/358791840",
  "properties": {
    "amenity": "school",
    "ele": "8",
    "gnis:county_id": "073",
    "gnis:created": "01/19/1981",
    "gnis:feature_id": "248679",
    "gnis:state_id": "06",
    "name": "Saint Marys School",
    "id": "node/358791840"
  },
  "geometry": {
    "type": "Point",
    "coordinates": [
      -117.101419,
      32.6731086
    ]
  }
},
{
  "type": "Feature",
  "id": "node/358791855",
  "properties": {
    "amenity": "school",
    "ele": "22",
    "gnis:county_id": "073",
    "gnis:created": "01/19/1981",
    "gnis:feature_id": "248686",
    "gnis:state_id": "06",
    "name": "Saint Marys Star of the Sea School",
    "id": "node/358791855"
  },
  "geometry": {
    "type": "Point",
    "coordinates": [
      -117.3719833,
      33.1886477
    ]
  }
},
{
  "type": "Feature",
  "id": "node/358791865",
  "properties": {
    "amenity": "school",
    "ele": "193",
    "gnis:county_id": "073",
    "gnis:created": "01/19/1981",
    "gnis:feature_id": "248691",
    "gnis:state_id": "06",
    "name": "Saint Michaels School",
    "id": "node/358791865"
  },
  "geometry": {
    "type": "Point",
    "coordinates": [
      -117.0583655,
      32.9958779
    ]
  }
},
{
  "type": "Feature",
  "id": "node/358791881",
  "properties": {
    "amenity": "school",
    "ele": "106",
    "gnis:county_id": "073",
    "gnis:created": "01/19/1981",
    "gnis:feature_id": "248699",
    "gnis:state_id": "06",
    "name": "Saint Patricks School",
    "id": "node/358791881"
  },
  "geometry": {
    "type": "Point",
    "coordinates": [
      -117.1297544,
      32.7439397
    ]
  }
},
{
  "type": "Feature",
  "id": "node/358791920",
  "properties": {
    "amenity": "school",
    "ele": "54",
    "gnis:county_id": "073",
    "gnis:created": "01/19/1981",
    "gnis:feature_id": "248717",
    "gnis:state_id": "06",
    "name": "Saint Pius X School",
    "wikidata": "Q7591566",
    "id": "node/358791920"
  },
  "geometry": {
    "type": "Point",
    "coordinates": [
      -117.0550273,
      32.6164439
    ]
  }
},
{
  "type": "Feature",
  "id": "node/358791932",
  "properties": {
    "amenity": "school",
    "ele": "56",
    "gnis:county_id": "073",
    "gnis:created": "01/19/1981",
    "gnis:feature_id": "248723",
    "gnis:state_id": "06",
    "name": "Saint Ritas School",
    "id": "node/358791932"
  },
  "geometry": {
    "type": "Point",
    "coordinates": [
      -117.0850299,
      32.7036634
    ]
  }
},
{
  "type": "Feature",
  "id": "node/358791935",
  "properties": {
    "amenity": "school",
    "ele": "27",
    "gnis:county_id": "073",
    "gnis:created": "01/19/1981",
    "gnis:feature_id": "248724",
    "gnis:state_id": "06",
    "name": "Saint Rose of Lima School",
    "id": "node/358791935"
  },
  "geometry": {
    "type": "Point",
    "coordinates": [
      -117.0772508,
      32.6350543
    ]
  }
},
{
  "type": "Feature",
  "id": "node/358791945",
  "properties": {
    "amenity": "school",
    "ele": "137",
    "gnis:county_id": "073",
    "gnis:created": "01/19/1981",
    "gnis:feature_id": "248730",
    "gnis:state_id": "06",
    "name": "Saint Therese Academy",
    "id": "node/358791945"
  },
  "geometry": {
    "type": "Point",
    "coordinates": [
      -117.0650302,
      32.7944944
    ]
  }
},
{
  "type": "Feature",
  "id": "node/358791970",
  "properties": {
    "amenity": "school",
    "ele": "83",
    "gnis:county_id": "073",
    "gnis:created": "01/19/1981",
    "gnis:feature_id": "248742",
    "gnis:state_id": "06",
    "name": "Saint Vincents School",
    "id": "node/358791970"
  },
  "geometry": {
    "type": "Point",
    "coordinates": [
      -117.173414,
      32.7507219
    ]
  }
},
{
  "type": "Feature",
  "id": "node/358792021",
  "properties": {
    "amenity": "school",
    "ele": "45",
    "gnis:county_id": "073",
    "gnis:created": "01/19/1981",
    "gnis:feature_id": "248819",
    "gnis:state_id": "06",
    "name": "San Diego Academy",
    "wikidata": "Q7413591",
    "id": "node/358792021"
  },
  "geometry": {
    "type": "Point",
    "coordinates": [
      -117.0805849,
      32.6867195
    ]
  }
},
{
  "type": "Feature",
  "id": "node/358792024",
  "properties": {
    "amenity": "school",
    "ele": "21",
    "gnis:county_id": "073",
    "gnis:created": "01/19/1981",
    "gnis:feature_id": "248822",
    "gnis:state_id": "06",
    "name": "San Diego Christian School",
    "id": "node/358792024"
  },
  "geometry": {
    "type": "Point",
    "coordinates": [
      -117.1061418,
      32.699219
    ]
  }
},
{
  "type": "Feature",
  "id": "node/358792103",
  "properties": {
    "amenity": "school",
    "ele": "27",
    "gnis:county_id": "073",
    "gnis:created": "01/19/1981",
    "gnis:feature_id": "248901",
    "gnis:state_id": "06",
    "name": "San Luis Rey Academy",
    "id": "node/358792103"
  },
  "geometry": {
    "type": "Point",
    "coordinates": [
      -117.317815,
      33.2319797
    ]
  }
},
{
  "type": "Feature",
  "id": "node/358792114",
  "properties": {
    "amenity": "school",
    "ele": "186",
    "gnis:county_id": "073",
    "gnis:created": "01/19/1981",
    "gnis:feature_id": "248910",
    "gnis:state_id": "06",
    "name": "San Marcos Middle School",
    "id": "node/358792114"
  },
  "geometry": {
    "type": "Point",
    "coordinates": [
      -117.1756398,
      33.1468566
    ]
  }
},
{
  "type": "Feature",
  "id": "node/358792132",
  "properties": {
    "amenity": "school",
    "ele": "141",
    "gnis:county_id": "073",
    "gnis:created": "06/14/2000",
    "gnis:feature_id": "248930",
    "gnis:state_id": "06",
    "name": "San Miguel Elementary School",
    "id": "node/358792132"
  },
  "geometry": {
    "type": "Point",
    "coordinates": [
      -117.0466954,
      32.7347739
    ]
  }
},
{
  "type": "Feature",
  "id": "node/358792180",
  "properties": {
    "amenity": "school",
    "disused:name": "yes",
    "ele": "35",
    "gnis:county_id": "073",
    "gnis:created": "01/19/1981",
    "gnis:feature_id": "248979",
    "gnis:state_id": "06",
    "name": "San Ysidro Academy",
    "id": "node/358792180"
  },
  "geometry": {
    "type": "Point",
    "coordinates": [
      -117.045026,
      32.5575567
    ]
  }
},
{
  "type": "Feature",
  "id": "node/358792251",
  "properties": {
    "amenity": "school",
    "ele": "104",
    "gnis:county_id": "073",
    "gnis:created": "06/14/2000",
    "gnis:feature_id": "249066",
    "gnis:state_id": "06",
    "name": "Vista Academy of Visual and Performing Arts",
    "id": "node/358792251"
  },
  "geometry": {
    "type": "Point",
    "coordinates": [
      -117.2475355,
      33.2092031
    ]
  }
},
{
  "type": "Feature",
  "id": "node/358792258",
  "properties": {
    "amenity": "school",
    "ele": "59",
    "gnis:county_id": "073",
    "gnis:created": "01/19/1981",
    "gnis:feature_id": "249081",
    "gnis:state_id": "06",
    "name": "Santa Margarita School",
    "id": "node/358792258"
  },
  "geometry": {
    "type": "Point",
    "coordinates": [
      -117.3781644,
      33.2326499
    ]
  }
},
{
  "type": "Feature",
  "id": "node/358792318",
  "properties": {
    "amenity": "school",
    "ele": "848",
    "gnis:county_id": "073",
    "gnis:created": "01/19/1981",
    "gnis:feature_id": "249142",
    "gnis:state_id": "06",
    "name": "Santa Ysabel School",
    "id": "node/358792318"
  },
  "geometry": {
    "type": "Point",
    "coordinates": [
      -116.714744,
      33.081433
    ]
  }
},
{
  "type": "Feature",
  "id": "node/358792386",
  "properties": {
    "addr:street": "Kennel Way",
    "amenity": "school",
    "ele": "14",
    "gnis:county_id": "073",
    "gnis:created": "01/19/1981",
    "gnis:feature_id": "249229",
    "gnis:state_id": "06",
    "name": "Scripps Institution of Oceanography",
    "id": "node/358792386"
  },
  "geometry": {
    "type": "Point",
    "coordinates": [
      -117.2540605,
      32.865048
    ]
  }
},
{
  "type": "Feature",
  "id": "node/358792631",
  "properties": {
    "amenity": "school",
    "ele": "20",
    "gnis:county_id": "073",
    "gnis:created": "06/14/2000",
    "gnis:feature_id": "249472",
    "gnis:state_id": "06",
    "name": "Silver Gate Elementary School",
    "id": "node/358792631"
  },
  "geometry": {
    "type": "Point",
    "coordinates": [
      -117.2437751,
      32.7319574
    ]
  }
},
{
  "type": "Feature",
  "id": "node/358792652",
  "properties": {
    "addr:housenumber": "1350",
    "addr:postcode": "92118",
    "addr:street": "Leyte Road",
    "amenity": "school",
    "ele": "4",
    "gnis:county_id": "073",
    "gnis:created": "01/19/1981",
    "gnis:feature_id": "249492",
    "gnis:state_id": "06",
    "name": "Silver Strand Elementary School",
    "id": "node/358792652"
  },
  "geometry": {
    "type": "Point",
    "coordinates": [
      -117.1450315,
      32.6444979
    ]
  }
},
{
  "type": "Feature",
  "id": "node/358792904",
  "properties": {
    "amenity": "school",
    "ele": "140",
    "fixme": "map this area",
    "gnis:county_id": "073",
    "gnis:created": "06/14/2000",
    "gnis:feature_id": "249823",
    "gnis:state_id": "06",
    "name": "Spring Valley Middle School",
    "id": "node/358792904"
  },
  "geometry": {
    "type": "Point",
    "coordinates": [
      -116.988638,
      32.7506074
    ]
  }
},
{
  "type": "Feature",
  "id": "node/358792906",
  "properties": {
    "amenity": "school",
    "ele": "124",
    "gnis:county_id": "073",
    "gnis:created": "06/14/2000",
    "gnis:feature_id": "249824",
    "gnis:state_id": "06",
    "name": "Spring Valley Elementary School",
    "id": "node/358792906"
  },
  "geometry": {
    "type": "Point",
    "coordinates": [
      -117.0024712,
      32.749146
    ]
  }
},
{
  "type": "Feature",
  "id": "node/358793007",
  "properties": {
    "amenity": "school",
    "ele": "28",
    "gnis:county_id": "073",
    "gnis:created": "06/14/2000",
    "gnis:feature_id": "249937",
    "gnis:state_id": "06",
    "name": "Stockton Elementary School",
    "id": "node/358793007"
  },
  "geometry": {
    "type": "Point",
    "coordinates": [
      -117.1266982,
      32.7092185
    ]
  }
},
{
  "type": "Feature",
  "id": "node/358793382",
  "properties": {
    "amenity": "school",
    "ele": "227",
    "gnis:county_id": "073",
    "gnis:created": "01/19/1981",
    "gnis:feature_id": "250397",
    "gnis:state_id": "06",
    "name": "The Oaks School",
    "id": "node/358793382"
  },
  "geometry": {
    "type": "Point",
    "coordinates": [
      -116.8928018,
      32.7233872
    ]
  }
},
{
  "type": "Feature",
  "id": "node/358793668",
  "properties": {
    "amenity": "school",
    "ele": "20",
    "gnis:county_id": "073",
    "gnis:created": "06/14/2000",
    "gnis:feature_id": "250728",
    "gnis:state_id": "06",
    "name": "New School of Architecture",
    "id": "node/358793668"
  },
  "geometry": {
    "type": "Point",
    "coordinates": [
      -117.1550328,
      32.7139404
    ]
  }
},
{
  "type": "Feature",
  "id": "node/358793846",
  "properties": {
    "amenity": "school",
    "ele": "914",
    "gnis:county_id": "073",
    "gnis:created": "01/19/1981",
    "gnis:feature_id": "250812",
    "gnis:state_id": "06",
    "name": "United States Navy Survival Training School",
    "id": "node/358793846"
  },
  "geometry": {
    "type": "Point",
    "coordinates": [
      -116.6458527,
      33.2894816
    ]
  }
},
{
  "type": "Feature",
  "id": "node/358793858",
  "properties": {
    "amenity": "school",
    "ele": "123",
    "gnis:county_id": "073",
    "gnis:created": "01/19/1981",
    "gnis:edited": "01/04/2008",
    "gnis:feature_id": "250816",
    "gnis:state_id": "06",
    "name": "University of California - San Diego",
    "id": "node/358793858"
  },
  "geometry": {
    "type": "Point",
    "coordinates": [
      -117.2378377,
      32.8805933
    ]
  }
},
{
  "type": "Feature",
  "id": "node/358793996",
  "properties": {
    "amenity": "school",
    "ele": "429",
    "gnis:county_id": "073",
    "gnis:created": "01/19/1981",
    "gnis:feature_id": "250910",
    "gnis:state_id": "06",
    "name": "Valley Center Middle School",
    "id": "node/358793996"
  },
  "geometry": {
    "type": "Point",
    "coordinates": [
      -117.0208346,
      33.2365276
    ]
  }
},
{
  "type": "Feature",
  "id": "node/358794239",
  "properties": {
    "amenity": "school",
    "ele": "120",
    "gnis:county_id": "073",
    "gnis:created": "01/19/1981",
    "gnis:feature_id": "251099",
    "gnis:state_id": "06",
    "name": "Vista Christian School",
    "id": "node/358794239"
  },
  "geometry": {
    "type": "Point",
    "coordinates": [
      -117.2483688,
      33.2169805
    ]
  }
},
{
  "type": "Feature",
  "id": "node/358794244",
  "properties": {
    "amenity": "school",
    "ele": "105",
    "gnis:county_id": "073",
    "gnis:created": "01/19/1981",
    "gnis:feature_id": "251101",
    "gnis:state_id": "06",
    "id": "node/358794244"
  },
  "geometry": {
    "type": "Point",
    "coordinates": [
      -117.2378393,
      33.2008045
    ]
  }
},
{
  "type": "Feature",
  "id": "node/358794340",
  "properties": {
    "amenity": "school",
    "ele": "932",
    "gnis:county_id": "073",
    "gnis:created": "06/14/2000",
    "gnis:feature_id": "251195",
    "gnis:state_id": "06",
    "name": "Warner Elementary School",
    "id": "node/358794340"
  },
  "geometry": {
    "type": "Point",
    "coordinates": [
      -116.6427971,
      33.2742044
    ]
  }
},
{
  "type": "Feature",
  "id": "node/358794362",
  "properties": {
    "amenity": "school",
    "ele": "106",
    "gnis:county_id": "073",
    "gnis:created": "06/14/2000",
    "gnis:feature_id": "251208",
    "gnis:state_id": "06",
    "name": "Vista Innovation & Design Academy",
    "id": "node/358794362"
  },
  "geometry": {
    "type": "Point",
    "coordinates": [
      -117.257716,
      33.2035685
    ]
  }
},
{
  "type": "Feature",
  "id": "node/358794549",
  "properties": {
    "amenity": "school",
    "ele": "5",
    "gnis:county_id": "073",
    "gnis:created": "06/14/2000",
    "gnis:feature_id": "251386",
    "gnis:state_id": "06",
    "name": "West View Elementary School",
    "id": "node/358794549"
  },
  "geometry": {
    "type": "Point",
    "coordinates": [
      -117.1266966,
      32.586722
    ]
  }
},
{
  "type": "Feature",
  "id": "node/358794568",
  "properties": {
    "amenity": "school",
    "ele": "112",
    "gnis:county_id": "073",
    "gnis:created": "01/19/1981",
    "gnis:feature_id": "251400",
    "gnis:state_id": "06",
    "name": "Western University",
    "id": "node/358794568"
  },
  "geometry": {
    "type": "Point",
    "coordinates": [
      -117.0372503,
      32.7139413
    ]
  }
},
{
  "type": "Feature",
  "id": "node/358794669",
  "properties": {
    "amenity": "school",
    "ele": "94",
    "gnis:county_id": "073",
    "gnis:created": "01/19/1981",
    "gnis:feature_id": "251515",
    "gnis:state_id": "06",
    "name": "Whittier School",
    "id": "node/358794669"
  },
  "geometry": {
    "type": "Point",
    "coordinates": [
      -117.197331,
      32.8037652
    ]
  }
},
{
  "type": "Feature",
  "id": "node/358794678",
  "properties": {
    "amenity": "school",
    "ele": "111",
    "gnis:county_id": "073",
    "gnis:created": "01/19/1981",
    "gnis:feature_id": "251526",
    "gnis:state_id": "06",
    "name": "Wiggin School",
    "id": "node/358794678"
  },
  "geometry": {
    "type": "Point",
    "coordinates": [
      -117.1869855,
      32.8202468
    ]
  }
},
{
  "type": "Feature",
  "id": "node/358794912",
  "properties": {
    "amenity": "school",
    "ele": "62",
    "gnis:county_id": "073",
    "gnis:created": "01/19/1981",
    "gnis:feature_id": "251820",
    "gnis:state_id": "06",
    "name": "Millennial Tech Middle School",
    "id": "node/358794912"
  },
  "geometry": {
    "type": "Point",
    "coordinates": [
      -117.0897525,
      32.7175519
    ]
  }
},
{
  "type": "Feature",
  "id": "node/358795744",
  "properties": {
    "amenity": "school",
    "ele": "16",
    "gnis:county_id": "073",
    "gnis:created": "06/14/2000",
    "gnis:feature_id": "253998",
    "gnis:state_id": "06",
    "name": "Balboa Elementary School",
    "wikidata": "Q4850201",
    "id": "node/358795744"
  },
  "geometry": {
    "type": "Point",
    "coordinates": [
      -117.1089195,
      32.6867193
    ]
  }
},
{
  "type": "Feature",
  "id": "node/358795831",
  "properties": {
    "amenity": "school",
    "ele": "22",
    "gnis:county_id": "073",
    "gnis:created": "01/19/1981",
    "gnis:feature_id": "254190",
    "gnis:state_id": "06",
    "name": "Lutheran School",
    "id": "node/358795831"
  },
  "geometry": {
    "type": "Point",
    "coordinates": [
      -117.2452086,
      32.8001806
    ]
  }
},
{
  "type": "Feature",
  "id": "node/358800880",
  "properties": {
    "amenity": "school",
    "ele": "481",
    "gnis:county_id": "073",
    "gnis:created": "01/19/1981",
    "gnis:feature_id": "269761",
    "gnis:state_id": "06",
    "name": "Bear Valley School",
    "id": "node/358800880"
  },
  "geometry": {
    "type": "Point",
    "coordinates": [
      -116.9705842,
      33.1753165
    ]
  }
},
{
  "type": "Feature",
  "id": "node/358801159",
  "properties": {
    "amenity": "school",
    "ele": "129",
    "gnis:county_id": "073",
    "gnis:created": "06/14/2000",
    "gnis:feature_id": "270776",
    "gnis:state_id": "06",
    "name": "De Luz Elementary School",
    "id": "node/358801159"
  },
  "geometry": {
    "type": "Point",
    "coordinates": [
      -117.3192043,
      33.4422503
    ]
  }
},
{
  "type": "Feature",
  "id": "node/358801726",
  "properties": {
    "amenity": "school",
    "ele": "978",
    "gnis:county_id": "073",
    "gnis:created": "01/19/1981",
    "gnis:feature_id": "272418",
    "gnis:state_id": "06",
    "name": "Mesa Grande School",
    "id": "node/358801726"
  },
  "geometry": {
    "type": "Point",
    "coordinates": [
      -116.7789118,
      33.1878182
    ]
  }
},
{
  "type": "Feature",
  "id": "node/358801881",
  "properties": {
    "amenity": "school",
    "ele": "237",
    "gnis:county_id": "073",
    "gnis:created": "06/14/2000",
    "gnis:feature_id": "272897",
    "gnis:state_id": "06",
    "name": "Pauma Elementary School",
    "id": "node/358801881"
  },
  "geometry": {
    "type": "Point",
    "coordinates": [
      -117.0008615,
      33.3150342
    ]
  }
},
{
  "type": "Feature",
  "id": "node/358801888",
  "properties": {
    "amenity": "school",
    "ele": "239",
    "gnis:county_id": "073",
    "gnis:created": "01/19/1981",
    "gnis:feature_id": "272900",
    "gnis:state_id": "06",
    "name": "Pauma Valley School",
    "id": "node/358801888"
  },
  "geometry": {
    "type": "Point",
    "coordinates": [
      -117.0005836,
      33.3153119
    ]
  }
},
{
  "type": "Feature",
  "id": "node/358802372",
  "properties": {
    "amenity": "school",
    "ele": "1285",
    "gnis:county_id": "073",
    "gnis:created": "06/14/2000",
    "gnis:feature_id": "274271",
    "gnis:state_id": "06",
    "name": "Julian High School",
    "wikidata": "Q18386183",
    "id": "node/358802372"
  },
  "geometry": {
    "type": "Point",
    "coordinates": [
      -116.5952969,
      33.0769885
    ]
  }
},
{
  "type": "Feature",
  "id": "node/358807998",
  "properties": {
    "amenity": "school",
    "ele": "26",
    "gnis:county_id": "073",
    "gnis:created": "06/14/2000",
    "gnis:feature_id": "1660566",
    "gnis:state_id": "06",
    "name": "Doyle Elementary School",
    "id": "node/358807998"
  },
  "geometry": {
    "type": "Point",
    "coordinates": [
      -117.0997526,
      32.695608
    ]
  }
},
{
  "type": "Feature",
  "id": "node/358815948",
  "properties": {
    "amenity": "school",
    "ele": "706",
    "gnis:county_id": "073",
    "gnis:created": "06/01/1995",
    "gnis:feature_id": "1666561",
    "gnis:state_id": "06",
    "name": "Potrero Elementary School",
    "id": "node/358815948"
  },
  "geometry": {
    "type": "Point",
    "coordinates": [
      -116.6127953,
      32.6103376
    ]
  }
},
{
  "type": "Feature",
  "id": "node/358844462",
  "properties": {
    "amenity": "school",
    "ele": "41",
    "gnis:county_id": "073",
    "gnis:created": "06/13/2000",
    "gnis:feature_id": "1868371",
    "gnis:state_id": "06",
    "name": "Del Rio Elementary School",
    "id": "node/358844462"
  },
  "geometry": {
    "type": "Point",
    "coordinates": [
      -117.2869808,
      33.2575346
    ]
  }
},
{
  "type": "Feature",
  "id": "node/358844487",
  "properties": {
    "amenity": "school",
    "ele": "164",
    "gnis:county_id": "073",
    "gnis:created": "06/13/2000",
    "gnis:feature_id": "1868394",
    "gnis:state_id": "06",
    "name": "Ivy High School",
    "id": "node/358844487"
  },
  "geometry": {
    "type": "Point",
    "coordinates": [
      -117.2367016,
      33.3505872
    ]
  }
},
{
  "type": "Feature",
  "id": "node/358844491",
  "properties": {
    "amenity": "school",
    "ele": "206",
    "gnis:county_id": "073",
    "gnis:created": "06/13/2000",
    "gnis:feature_id": "1868399",
    "gnis:state_id": "06",
    "name": "Live Oak Elementary School",
    "id": "node/358844491"
  },
  "geometry": {
    "type": "Point",
    "coordinates": [
      -117.22059,
      33.3700311
    ]
  }
},
{
  "type": "Feature",
  "id": "node/358844502",
  "properties": {
    "amenity": "school",
    "ele": "37",
    "gnis:county_id": "073",
    "gnis:created": "06/13/2000",
    "gnis:feature_id": "1868409",
    "gnis:state_id": "06",
    "name": "Pacifica Elementary School",
    "id": "node/358844502"
  },
  "geometry": {
    "type": "Point",
    "coordinates": [
      -117.3036479,
      33.2567012
    ]
  }
},
{
  "type": "Feature",
  "id": "node/358844517",
  "properties": {
    "amenity": "school",
    "ele": "50",
    "gnis:county_id": "073",
    "gnis:created": "06/13/2000",
    "gnis:feature_id": "1868415",
    "gnis:state_id": "06",
    "name": "Rawhide Christian School",
    "id": "node/358844517"
  },
  "geometry": {
    "type": "Point",
    "coordinates": [
      -117.2297571,
      33.2667012
    ]
  }
},
{
  "type": "Feature",
  "id": "node/358844528",
  "properties": {
    "amenity": "school",
    "ele": "19",
    "gnis:county_id": "073",
    "gnis:created": "06/13/2000",
    "gnis:feature_id": "1868417",
    "gnis:state_id": "06",
    "name": "Reynolds Elementary School",
    "id": "node/358844528"
  },
  "geometry": {
    "type": "Point",
    "coordinates": [
      -117.3094814,
      33.2586455
    ]
  }
},
{
  "type": "Feature",
  "id": "node/358844540",
  "properties": {
    "amenity": "school",
    "ele": "247",
    "gnis:county_id": "073",
    "gnis:created": "06/13/2000",
    "gnis:feature_id": "1868422",
    "gnis:state_id": "06",
    "name": "Saint Peters Catholic School",
    "id": "node/358844540"
  },
  "geometry": {
    "type": "Point",
    "coordinates": [
      -117.2269791,
      33.3753087
    ]
  }
},
{
  "type": "Feature",
  "id": "node/358844543",
  "properties": {
    "amenity": "school",
    "ele": "254",
    "gnis:county_id": "073",
    "gnis:created": "06/13/2000",
    "gnis:feature_id": "1868424",
    "gnis:state_id": "06",
    "name": "Saint Stephen Evangelical Lutheran School",
    "id": "node/358844543"
  },
  "geometry": {
    "type": "Point",
    "coordinates": [
      -117.2294792,
      33.3872527
    ]
  }
},
{
  "type": "Feature",
  "id": "node/358844548",
  "properties": {
    "amenity": "school",
    "ele": "202",
    "gnis:county_id": "073",
    "gnis:created": "06/13/2000",
    "gnis:feature_id": "1868431",
    "gnis:state_id": "06",
    "name": "Sullivan Middle School",
    "id": "node/358844548"
  },
  "geometry": {
    "type": "Point",
    "coordinates": [
      -117.1725333,
      33.2964227
    ]
  }
},
{
  "type": "Feature",
  "id": "node/358844558",
  "properties": {
    "amenity": "school",
    "ele": "189",
    "gnis:county_id": "073",
    "gnis:created": "06/13/2000",
    "gnis:feature_id": "1868446",
    "gnis:state_id": "06",
    "name": "Borrego Springs High School",
    "id": "node/358844558"
  },
  "geometry": {
    "type": "Point",
    "coordinates": [
      -116.3830678,
      33.2647603
    ]
  }
},
{
  "type": "Feature",
  "id": "node/358844565",
  "properties": {
    "amenity": "school",
    "ele": "61",
    "gnis:county_id": "073",
    "gnis:created": "06/13/2000",
    "gnis:feature_id": "1868452",
    "gnis:state_id": "06",
    "name": "Carlsbad High School",
    "wikidata": "Q5042874",
    "wikipedia": "en:Carlsbad High School (California)",
    "id": "node/358844565"
  },
  "geometry": {
    "type": "Point",
    "coordinates": [
      -117.3277312,
      33.1629699
    ]
  }
},
{
  "type": "Feature",
  "id": "node/358844588",
  "properties": {
    "amenity": "school",
    "ele": "85",
    "gnis:county_id": "073",
    "gnis:created": "06/13/2000",
    "gnis:feature_id": "1868480",
    "gnis:state_id": "06",
    "name": "Hope Elementary School",
    "id": "node/358844588"
  },
  "geometry": {
    "type": "Point",
    "coordinates": [
      -117.3047538,
      33.1708392
    ]
  }
},
{
  "type": "Feature",
  "id": "node/358844592",
  "properties": {
    "amenity": "school",
    "ele": "123",
    "gnis:county_id": "073",
    "gnis:created": "06/13/2000",
    "gnis:feature_id": "1868483",
    "gnis:state_id": "06",
    "name": "Lake Elementary School",
    "id": "node/358844592"
  },
  "geometry": {
    "type": "Point",
    "coordinates": [
      -117.2528135,
      33.1703156
    ]
  }
},
{
  "type": "Feature",
  "id": "node/358844594",
  "properties": {
    "amenity": "school",
    "ele": "110",
    "gnis:county_id": "073",
    "gnis:created": "06/13/2000",
    "gnis:feature_id": "1868485",
    "gnis:state_id": "06",
    "name": "Madison Middle School",
    "id": "node/358844594"
  },
  "geometry": {
    "type": "Point",
    "coordinates": [
      -117.2569498,
      33.1739568
    ]
  }
},
{
  "type": "Feature",
  "id": "node/358844615",
  "properties": {
    "amenity": "school",
    "ele": "31",
    "gnis:county_id": "073",
    "gnis:created": "06/13/2000",
    "gnis:feature_id": "1868507",
    "gnis:state_id": "06",
    "name": "San Rafael Elementary School",
    "id": "node/358844615"
  },
  "geometry": {
    "type": "Point",
    "coordinates": [
      -117.3850391,
      33.2130913
    ]
  }
},
{
  "type": "Feature",
  "id": "node/358844626",
  "properties": {
    "amenity": "school",
    "ele": "39",
    "gnis:county_id": "073",
    "gnis:created": "06/13/2000",
    "gnis:feature_id": "1868526",
    "gnis:state_id": "06",
    "name": "Alamosa Park Elementary School",
    "id": "node/358844626"
  },
  "geometry": {
    "type": "Point",
    "coordinates": [
      -117.2822585,
      33.2422573
    ]
  }
},
{
  "type": "Feature",
  "id": "node/358844641",
  "properties": {
    "amenity": "school",
    "ele": "87",
    "gnis:county_id": "073",
    "gnis:created": "06/13/2000",
    "gnis:feature_id": "1868545",
    "gnis:state_id": "06",
    "name": "Casita Center for Technology Science and Math",
    "id": "node/358844641"
  },
  "geometry": {
    "type": "Point",
    "coordinates": [
      -117.2847588,
      33.1897591
    ]
  }
},
{
  "type": "Feature",
  "id": "node/358844648",
  "properties": {
    "amenity": "school",
    "ele": "63",
    "gnis:county_id": "073",
    "gnis:created": "06/13/2000",
    "gnis:feature_id": "1868550",
    "gnis:state_id": "06",
    "name": "Clair W Burgener Elementary School",
    "id": "node/358844648"
  },
  "geometry": {
    "type": "Point",
    "coordinates": [
      -117.3611496,
      33.2083693
    ]
  }
},
{
  "type": "Feature",
  "id": "node/358844665",
  "properties": {
    "amenity": "school",
    "ele": "80",
    "gnis:county_id": "073",
    "gnis:created": "06/13/2000",
    "gnis:feature_id": "1868571",
    "gnis:state_id": "06",
    "name": "First Presbyterian Pre-School",
    "id": "node/358844665"
  },
  "geometry": {
    "type": "Point",
    "coordinates": [
      -117.3289266,
      33.1919811
    ]
  }
},
{
  "type": "Feature",
  "id": "node/358844680",
  "properties": {
    "amenity": "school",
    "ele": "18",
    "gnis:county_id": "073",
    "gnis:created": "06/13/2000",
    "gnis:feature_id": "1868585",
    "gnis:state_id": "06",
    "name": "La Palma High School",
    "id": "node/358844680"
  },
  "geometry": {
    "type": "Point",
    "coordinates": [
      -117.3425382,
      33.1569822
    ]
  }
},
{
  "type": "Feature",
  "id": "node/358844705",
  "properties": {
    "amenity": "school",
    "ele": "215",
    "gnis:county_id": "073",
    "gnis:created": "06/13/2000",
    "gnis:feature_id": "1868631",
    "gnis:state_id": "06",
    "name": "San Marcos Unified Alternative-Foothills High School",
    "id": "node/358844705"
  },
  "geometry": {
    "type": "Point",
    "coordinates": [
      -117.1585055,
      33.180109
    ]
  }
},
{
  "type": "Feature",
  "id": "node/358844713",
  "properties": {
    "amenity": "school",
    "ele": "18",
    "gnis:county_id": "073",
    "gnis:created": "06/13/2000",
    "gnis:feature_id": "1868636",
    "gnis:state_id": "06",
    "name": "South Oceanside Elementary School",
    "id": "node/358844713"
  },
  "geometry": {
    "type": "Point",
    "coordinates": [
      -117.3572354,
      33.1773759
    ]
  }
},
{
  "type": "Feature",
  "id": "node/358844747",
  "properties": {
    "amenity": "school",
    "ele": "160",
    "gnis:county_id": "073",
    "gnis:created": "06/13/2000",
    "gnis:edited": "01/04/2008",
    "gnis:feature_id": "1868678",
    "gnis:state_id": "06",
    "name": "Maric College - North County",
    "id": "node/358844747"
  },
  "geometry": {
    "type": "Point",
    "coordinates": [
      -117.2205905,
      33.1725378
    ]
  }
},
{
  "type": "Feature",
  "id": "node/358844748",
  "properties": {
    "amenity": "school",
    "ele": "218",
    "gnis:county_id": "073",
    "gnis:created": "06/13/2000",
    "gnis:feature_id": "1868679",
    "gnis:state_id": "06",
    "name": "Nicolaysen Center",
    "id": "node/358844748"
  },
  "geometry": {
    "type": "Point",
    "coordinates": [
      -117.0369751,
      33.1436505
    ]
  }
},
{
  "type": "Feature",
  "id": "node/358844751",
  "properties": {
    "amenity": "school",
    "ele": "214",
    "gnis:county_id": "073",
    "gnis:created": "06/13/2000",
    "gnis:feature_id": "1868682",
    "gnis:state_id": "06",
    "name": "Paloma Elementary School",
    "id": "node/358844751"
  },
  "geometry": {
    "type": "Point",
    "coordinates": [
      -117.175034,
      33.1533719
    ]
  }
},
{
  "type": "Feature",
  "id": "node/358844819",
  "properties": {
    "amenity": "school",
    "ele": "110",
    "gnis:county_id": "073",
    "gnis:created": "06/13/2000",
    "gnis:feature_id": "1868756",
    "gnis:state_id": "06",
    "name": "Rancho Buena Vista High School",
    "wikidata": "Q7290860",
    "id": "node/358844819"
  },
  "geometry": {
    "type": "Point",
    "coordinates": [
      -117.2467023,
      33.1611492
    ]
  }
},
{
  "type": "Feature",
  "id": "node/358844831",
  "properties": {
    "amenity": "school",
    "ele": "158",
    "gnis:county_id": "073",
    "gnis:created": "06/13/2000",
    "gnis:feature_id": "1868775",
    "gnis:state_id": "06",
    "name": "Alta Vista High School",
    "id": "node/358844831"
  },
  "geometry": {
    "type": "Point",
    "coordinates": [
      -117.2194792,
      33.222536
    ]
  }
},
{
  "type": "Feature",
  "id": "node/358844840",
  "properties": {
    "amenity": "school",
    "ele": "102",
    "gnis:county_id": "073",
    "gnis:created": "06/13/2000",
    "gnis:feature_id": "1868786",
    "gnis:state_id": "06",
    "name": "California Avenue Elementary School",
    "id": "node/358844840"
  },
  "geometry": {
    "type": "Point",
    "coordinates": [
      -117.2467021,
      33.2080921
    ]
  }
},
{
  "type": "Feature",
  "id": "node/358844848",
  "properties": {
    "amenity": "school",
    "ele": "70",
    "gnis:county_id": "073",
    "gnis:created": "06/13/2000",
    "gnis:feature_id": "1868794",
    "gnis:state_id": "06",
    "name": "Capri Elementary School",
    "id": "node/358844848"
  },
  "geometry": {
    "type": "Point",
    "coordinates": [
      -117.2883704,
      33.0753187
    ]
  }
},
{
  "type": "Feature",
  "id": "node/358844875",
  "properties": {
    "amenity": "school",
    "ele": "86",
    "gnis:county_id": "073",
    "gnis:created": "06/13/2000",
    "gnis:feature_id": "1868827",
    "gnis:state_id": "06",
    "name": "Flora Vista Elementary School",
    "id": "node/358844875"
  },
  "geometry": {
    "type": "Point",
    "coordinates": [
      -117.2534997,
      33.0561364
    ]
  }
},
{
  "type": "Feature",
  "id": "node/358844884",
  "properties": {
    "amenity": "school",
    "ele": "76",
    "gnis:county_id": "073",
    "gnis:created": "06/13/2000",
    "gnis:feature_id": "1868844",
    "gnis:state_id": "06",
    "name": "La Costa Heights Elementary School",
    "id": "node/358844884"
  },
  "geometry": {
    "type": "Point",
    "coordinates": [
      -117.2433955,
      33.0799732
    ]
  }
},
{
  "type": "Feature",
  "id": "node/358844885",
  "properties": {
    "amenity": "school",
    "ele": "171",
    "gnis:county_id": "073",
    "gnis:created": "06/13/2000",
    "gnis:feature_id": "1868845",
    "gnis:state_id": "06",
    "name": "La Costa Meadows Elementary School",
    "id": "node/358844885"
  },
  "geometry": {
    "type": "Point",
    "coordinates": [
      -117.2411469,
      33.1033735
    ]
  }
},
{
  "type": "Feature",
  "id": "node/358844895",
  "properties": {
    "amenity": "school",
    "created_by": "Potlatch 0.10f",
    "ele": "15",
    "gnis:county_id": "073",
    "gnis:created": "06/13/2000",
    "gnis:feature_id": "1868861",
    "gnis:state_id": "06",
    "name": "Mira Costa Community College San Elijo Campus",
    "id": "node/358844895"
  },
  "geometry": {
    "type": "Point",
    "coordinates": [
      -117.258658,
      33.0177726
    ]
  }
},
{
  "type": "Feature",
  "id": "node/358844896",
  "properties": {
    "addr:city": "Carlsbad",
    "addr:housenumber": "3330",
    "addr:postcode": "92009",
    "addr:state": "CA",
    "addr:street": "Calle Barcelona",
    "amenity": "school",
    "ele": "41",
    "gnis:county_id": "073",
    "gnis:created": "06/13/2000",
    "gnis:feature_id": "1868862",
    "gnis:state_id": "06",
    "name": "Mission Estancia Elementary School",
    "operator": "Encinitas Unified School District",
    "id": "node/358844896"
  },
  "geometry": {
    "type": "Point",
    "coordinates": [
      -117.240137,
      33.0723301
    ]
  }
},
{
  "type": "Feature",
  "id": "node/358844906",
  "properties": {
    "amenity": "school",
    "ele": "158",
    "gnis:county_id": "073",
    "gnis:created": "06/13/2000",
    "gnis:feature_id": "1868874",
    "gnis:state_id": "06",
    "name": "Palomar Continuation High School",
    "id": "node/358844906"
  },
  "geometry": {
    "type": "Point",
    "coordinates": [
      -117.2194792,
      33.222536
    ]
  }
},
{
  "type": "Feature",
  "id": "node/358844914",
  "properties": {
    "amenity": "school",
    "ele": "60",
    "gnis:county_id": "073",
    "gnis:created": "06/13/2000",
    "gnis:feature_id": "1868894",
    "gnis:state_id": "06",
    "name": "Rancho Santa Fe Elementary School",
    "id": "node/358844914"
  },
  "geometry": {
    "type": "Point",
    "coordinates": [
      -117.206702,
      33.0211544
    ]
  }
},
{
  "type": "Feature",
  "id": "node/358844930",
  "properties": {
    "amenity": "school",
    "ele": "63",
    "gnis:county_id": "073",
    "gnis:created": "06/13/2000",
    "gnis:feature_id": "1868903",
    "gnis:state_id": "06",
    "name": "San Dieguito Union Alternative Education School",
    "id": "node/358844930"
  },
  "geometry": {
    "type": "Point",
    "coordinates": [
      -117.2789286,
      33.0436058
    ]
  }
},
{
  "type": "Feature",
  "id": "node/358844935",
  "properties": {
    "amenity": "school",
    "ele": "112",
    "gnis:county_id": "073",
    "gnis:created": "06/13/2000",
    "gnis:feature_id": "1868910",
    "gnis:state_id": "06",
    "name": "Sierra Vista High School",
    "wikidata": "Q7511617",
    "id": "node/358844935"
  },
  "geometry": {
    "type": "Point",
    "coordinates": [
      -117.2411464,
      33.2211471
    ]
  }
},
{
  "type": "Feature",
  "id": "node/358844951",
  "properties": {
    "amenity": "school",
    "ele": "419",
    "gnis:county_id": "073",
    "gnis:created": "06/13/2000",
    "gnis:feature_id": "1868933",
    "gnis:state_id": "06",
    "name": "Valley Center Elementary School",
    "id": "node/358844951"
  },
  "geometry": {
    "type": "Point",
    "coordinates": [
      -117.0222519,
      33.235314
    ]
  }
},
{
  "type": "Feature",
  "id": "node/358844953",
  "properties": {
    "amenity": "school",
    "ele": "433",
    "gnis:county_id": "073",
    "gnis:created": "06/13/2000",
    "gnis:feature_id": "1868936",
    "gnis:state_id": "06",
    "name": "Valley Center Primary School",
    "id": "node/358844953"
  },
  "geometry": {
    "type": "Point",
    "coordinates": [
      -117.0216962,
      33.2408693
    ]
  }
},
{
  "type": "Feature",
  "id": "node/358844973",
  "properties": {
    "amenity": "school",
    "ele": "470",
    "gnis:county_id": "073",
    "gnis:created": "06/13/2000",
    "gnis:feature_id": "1868969",
    "gnis:state_id": "06",
    "name": "James Dukes Elementary School",
    "id": "node/358844973"
  },
  "geometry": {
    "type": "Point",
    "coordinates": [
      -116.7922465,
      33.0083795
    ]
  }
},
{
  "type": "Feature",
  "id": "node/358844982",
  "properties": {
    "amenity": "school",
    "ele": "1303",
    "gnis:county_id": "073",
    "gnis:created": "06/13/2000",
    "gnis:feature_id": "1868974",
    "gnis:state_id": "06",
    "name": "Juilan Elementary School",
    "id": "node/358844982"
  },
  "geometry": {
    "type": "Point",
    "coordinates": [
      -116.5950645,
      33.0785245
    ]
  }
},
{
  "type": "Feature",
  "id": "node/358844983",
  "properties": {
    "amenity": "school",
    "ele": "1288",
    "gnis:county_id": "073",
    "gnis:created": "06/13/2000",
    "gnis:feature_id": "1868975",
    "gnis:state_id": "06",
    "name": "Julian Junior High School",
    "id": "node/358844983"
  },
  "geometry": {
    "type": "Point",
    "coordinates": [
      -116.5937555,
      33.0787313
    ]
  }
},
{
  "type": "Feature",
  "id": "node/358845001",
  "properties": {
    "amenity": "school",
    "ele": "1283",
    "gnis:county_id": "073",
    "gnis:created": "06/13/2000",
    "gnis:feature_id": "1868995",
    "gnis:state_id": "06",
    "name": "Ray Redding Continuation High School",
    "id": "node/358845001"
  },
  "geometry": {
    "type": "Point",
    "coordinates": [
      -116.5950192,
      33.0772663
    ]
  }
},
{
  "type": "Feature",
  "id": "node/358845021",
  "properties": {
    "amenity": "school",
    "ele": "30",
    "gnis:county_id": "073",
    "gnis:created": "06/13/2000",
    "gnis:feature_id": "1869013",
    "gnis:state_id": "06",
    "name": "Carmel del Mar Elementary School",
    "id": "node/358845021"
  },
  "geometry": {
    "type": "Point",
    "coordinates": [
      -117.2290848,
      32.9406352
    ]
  }
},
{
  "type": "Feature",
  "id": "node/358845065",
  "properties": {
    "amenity": "school",
    "ele": "21",
    "gnis:county_id": "073",
    "gnis:created": "06/13/2000",
    "gnis:feature_id": "1869064",
    "gnis:state_id": "06",
    "name": "Beth Am Preschool",
    "id": "node/358845065"
  },
  "geometry": {
    "type": "Point",
    "coordinates": [
      -117.2617033,
      32.9905996
    ]
  }
},
{
  "type": "Feature",
  "id": "node/358845066",
  "properties": {
    "amenity": "school",
    "ele": "23",
    "gnis:county_id": "073",
    "gnis:created": "06/13/2000",
    "gnis:feature_id": "1869067",
    "gnis:state_id": "06",
    "name": "Bridges-A-Learning Center",
    "id": "node/358845066"
  },
  "geometry": {
    "type": "Point",
    "coordinates": [
      -117.2614777,
      32.9933429
    ]
  }
},
{
  "type": "Feature",
  "id": "node/358845070",
  "properties": {
    "amenity": "school",
    "created_by": "Potlatch 0.10f",
    "ele": "45",
    "gnis:county_id": "073",
    "gnis:created": "06/13/2000",
    "gnis:feature_id": "1869070",
    "gnis:state_id": "06",
    "name": "Child Development Center",
    "id": "node/358845070"
  },
  "geometry": {
    "type": "Point",
    "coordinates": [
      -117.2709948,
      32.9958647
    ]
  }
},
{
  "type": "Feature",
  "id": "node/358845112",
  "properties": {
    "amenity": "school",
    "ele": "154",
    "gnis:county_id": "073",
    "gnis:created": "06/13/2000",
    "gnis:edited": "01/04/2008",
    "gnis:feature_id": "1869107",
    "gnis:state_id": "06",
    "name": "San Diego Miramar College",
    "id": "node/358845112"
  },
  "geometry": {
    "type": "Point",
    "coordinates": [
      -117.1189218,
      32.9075467
    ]
  }
},
{
  "type": "Feature",
  "id": "node/358845115",
  "properties": {
    "amenity": "school",
    "ele": "498",
    "gnis:county_id": "073",
    "gnis:created": "06/13/2000",
    "gnis:feature_id": "1869110",
    "gnis:state_id": "06",
    "name": "Mount Woodson Elementary School",
    "id": "node/358845115"
  },
  "geometry": {
    "type": "Point",
    "coordinates": [
      -116.9575918,
      33.0324229
    ]
  }
},
{
  "type": "Feature",
  "id": "node/358845122",
  "properties": {
    "amenity": "school",
    "ele": "209",
    "gnis:county_id": "073",
    "gnis:created": "06/13/2000",
    "gnis:feature_id": "1869118",
    "gnis:state_id": "06",
    "name": "Poway Adult School",
    "id": "node/358845122"
  },
  "geometry": {
    "type": "Point",
    "coordinates": [
      -117.0356367,
      32.9789533
    ]
  }
},
{
  "type": "Feature",
  "id": "node/358845135",
  "properties": {
    "amenity": "school",
    "ele": "138",
    "gnis:county_id": "073",
    "gnis:created": "06/13/2000",
    "gnis:feature_id": "1869130",
    "gnis:state_id": "06",
    "grades": "9-12",
    "isced:level": "2;3",
    "name": "San Pasqual Academy",
    "website": "http://sanpasqualacademy.weebly.com/",
    "id": "node/358845135"
  },
  "geometry": {
    "type": "Point",
    "coordinates": [
      -116.948084,
      33.0872642
    ]
  }
},
{
  "type": "Feature",
  "id": "node/358845150",
  "properties": {
    "amenity": "school",
    "created_by": "Potlatch 0.10f",
    "ele": "13",
    "gnis:county_id": "073",
    "gnis:created": "06/13/2000",
    "gnis:feature_id": "1869150",
    "gnis:state_id": "06",
    "name": "Solano Santa Fe Elementarty School",
    "id": "node/358845150"
  },
  "geometry": {
    "type": "Point",
    "coordinates": [
      -117.2372609,
      32.9811611
    ]
  }
},
{
  "type": "Feature",
  "id": "node/358845162",
  "properties": {
    "amenity": "school",
    "ele": "188",
    "gnis:county_id": "073",
    "gnis:created": "06/13/2000",
    "gnis:edited": "01/04/2008",
    "gnis:feature_id": "1869161",
    "gnis:state_id": "06",
    "name": "Alliant International University - San Diego",
    "id": "node/358845162"
  },
  "geometry": {
    "type": "Point",
    "coordinates": [
      -117.0930876,
      32.8975471
    ]
  }
},
{
  "type": "Feature",
  "id": "node/358845172",
  "properties": {
    "amenity": "school",
    "ele": "147",
    "gnis:county_id": "073",
    "gnis:created": "06/13/2000",
    "gnis:feature_id": "1869170",
    "gnis:state_id": "06",
    "name": "West Coast University",
    "id": "node/358845172"
  },
  "geometry": {
    "type": "Point",
    "coordinates": [
      -117.1197551,
      32.8994913
    ]
  }
},
{
  "type": "Feature",
  "id": "node/358845279",
  "properties": {
    "amenity": "school",
    "ele": "223",
    "gnis:county_id": "073",
    "gnis:created": "06/13/2000",
    "gnis:feature_id": "1869328",
    "gnis:state_id": "06",
    "name": "Rancho Bernardo Middle School",
    "id": "node/358845279"
  },
  "geometry": {
    "type": "Point",
    "coordinates": [
      -117.0611434,
      32.9981001
    ]
  }
},
{
  "type": "Feature",
  "id": "node/358845351",
  "properties": {
    "amenity": "school",
    "ele": "114",
    "gnis:county_id": "073",
    "gnis:created": "06/13/2000",
    "gnis:feature_id": "1869396",
    "gnis:state_id": "06",
    "name": "Islamic School of San Diego",
    "id": "node/358845351"
  },
  "geometry": {
    "type": "Point",
    "coordinates": [
      -117.1669784,
      32.8200486
    ]
  }
},
{
  "type": "Feature",
  "id": "node/358845473",
  "properties": {
    "amenity": "school",
    "ele": "35",
    "gnis:county_id": "073",
    "gnis:created": "06/13/2000",
    "gnis:feature_id": "1869490",
    "gnis:state_id": "06",
    "name": "National University",
    "id": "node/358845473"
  },
  "geometry": {
    "type": "Point",
    "coordinates": [
      -117.1058649,
      32.7775501
    ]
  }
},
{
  "type": "Feature",
  "id": "node/358845625",
  "properties": {
    "amenity": "school",
    "ele": "119",
    "gnis:county_id": "073",
    "gnis:created": "06/13/2000",
    "gnis:feature_id": "1869585",
    "gnis:state_id": "06",
    "name": "Carlton Oaks Elementary School",
    "id": "node/358845625"
  },
  "geometry": {
    "type": "Point",
    "coordinates": [
      -117.0139695,
      32.844189
    ]
  }
},
{
  "type": "Feature",
  "id": "node/358845709",
  "properties": {
    "amenity": "school",
    "ele": "119",
    "gnis:county_id": "073",
    "gnis:created": "06/13/2000",
    "gnis:feature_id": "1869667",
    "gnis:state_id": "06",
    "name": "Lakeside Baptist School",
    "id": "node/358845709"
  },
  "geometry": {
    "type": "Point",
    "coordinates": [
      -116.9316935,
      32.8564384
    ]
  }
},
{
  "type": "Feature",
  "id": "node/358845710",
  "properties": {
    "amenity": "school",
    "ele": "123",
    "gnis:county_id": "073",
    "gnis:created": "06/13/2000",
    "gnis:feature_id": "1869671",
    "gnis:state_id": "06",
    "name": "Lakeside Union School District Education Center",
    "id": "node/358845710"
  },
  "geometry": {
    "type": "Point",
    "coordinates": [
      -116.9250267,
      32.8564384
    ]
  }
},