{
"type": "FeatureCollection",
"crs": { "type": "name", "properties": { "name": "urn:ogc:def:crs:OGC:1.3:CRS84" } },
"features": [
{ "type": "Feature", "properties": { "DISTRICT": 4, "WEBSITE": "https:\/\/www.escondido.org\/city-council.aspx", "CODE": "ES", "JUR_NAME": "ESCONDIDO", "NAME": "Michael Morasco", "PHONE": "(760) 839-4638", "Shape_STAr": 286388728.05199999, "Shape_STLe": 239084.951974 }, "geometry": { "type": "Point", "coordinates": [ -117.083406332474596, 33.091214224669635 ] } },
{ "type": "Feature", "properties": { "DISTRICT": 2, "WEBSITE": "https:\/\/www.escondido.org\/city-council.aspx", "CODE": "ES", "JUR_NAME": "ESCONDIDO", "NAME": "Tina Inscoe", "PHONE": "(760) 839-4638", "Shape_STAr": 493572466.83600003, "Shape_STLe": 303649.76733 }, "geometry": { "type": "Point", "coordinates": [ -117.079948784461806, 33.161313179411486 ] } },
{ "type": "Feature", "properties": { "DISTRICT": 1, "WEBSITE": "https:\/\/www.escondido.org\/city-council.aspx", "CODE": "ES", "JUR_NAME": "ESCONDIDO", "NAME": "Consuelo Martinez", "PHONE": "(760) 839-4638", "Shape_STAr": 68952038.162599996, "Shape_STLe": 40508.468050700001 }, "geometry": { "type": "Point", "coordinates": [ -117.070769438115917, 33.139149448907247 ] } },
{ "type": "Feature", "properties": { "DISTRICT": 3, "WEBSITE": "https:\/\/www.escondido.org\/city-council.aspx", "CODE": "ES", "JUR_NAME": "ESCONDIDO", "NAME": "Joe Garcia", "PHONE": "(760) 839-4638", "Shape_STAr": 190140259.794, "Shape_STLe": 109931.00374299999 }, "geometry": { "type": "Point", "coordinates": [ -117.035309229838902, 33.129869279801419 ] } },
{ "type": "Feature", "properties": { "DISTRICT": 1, "WEBSITE": "https:\/\/www.san-marcos.net\/departments\/city-clerk\/city-council", "CODE": "SM", "JUR_NAME": "SAN MARCOS", "NAME": "Maria Nunez", "PHONE": "(760) 744-1050", "Shape_STAr": 99620567.241600007, "Shape_STLe": 72568.226265200006 }, "geometry": { "type": "Point", "coordinates": [ -117.176566648277714, 33.146243132887491 ] } },
{ "type": "Feature", "properties": { "DISTRICT": 4, "WEBSITE": "https:\/\/www.san-marcos.net\/departments\/city-clerk\/city-council", "CODE": "SM", "JUR_NAME": "SAN MARCOS", "NAME": "Ed Musgrove", "PHONE": "(760) 744-1050", "Shape_STAr": 174054611.18599999, "Shape_STLe": 100738.442001 }, "geometry": { "type": "Point", "coordinates": [ -117.163217944411699, 33.162549347814625 ] } },
{ "type": "Feature", "properties": { "DISTRICT": 3, "WEBSITE": "https:\/\/www.san-marcos.net\/departments\/city-clerk\/city-council", "CODE": "SM", "JUR_NAME": "SAN MARCOS", "NAME": "Sharon Jenkins", "PHONE": "(760) 744-1050", "Shape_STAr": 182099451.83899999, "Shape_STLe": 99547.165912800003 }, "geometry": { "type": "Point", "coordinates": [ -117.158841462507041, 33.132253288312718 ] } },
{ "type": "Feature", "properties": { "DISTRICT": 2, "WEBSITE": "https:\/\/www.san-marcos.net\/departments\/city-clerk\/city-council", "CODE": "SM", "JUR_NAME": "SAN MARCOS", "NAME": "Randy Walton", "PHONE": "(760) 744-1050", "Shape_STAr": 222737583.63100001, "Shape_STLe": 129782.32443 }, "geometry": { "type": "Point", "coordinates": [ -117.194393481148509, 33.110606435587663 ] } },
{ "type": "Feature", "properties": { "DISTRICT": 1, "WEBSITE": "https:\/\/www.cityofelcajon.us\/your-government\/elected-officials\/city-council", "CODE": "EC", "JUR_NAME": "EL CAJON", "NAME": "Gary Kendrick", "PHONE": "(619) 441-1788", "Shape_STAr": 200786899.965, "Shape_STLe": 98943.202921699994 }, "geometry": { "type": "Point", "coordinates": [ -116.982655758318231, 32.806158093790685 ] } },
{ "type": "Feature", "properties": { "DISTRICT": 4, "WEBSITE": "https:\/\/www.cityofelcajon.us\/your-government\/elected-officials\/city-council", "CODE": "EC", "JUR_NAME": "EL CAJON", "NAME": "Phil Ortiz", "PHONE": "(619) 441-1788", "Shape_STAr": 51901224.2958, "Shape_STLe": 53545.953051999997 }, "geometry": { "type": "Point", "coordinates": [ -116.954088109553084, 32.784730267172847 ] } },
{ "type": "Feature", "properties": { "DISTRICT": 2, "WEBSITE": "https:\/\/www.cityofelcajon.us\/your-government\/elected-officials\/city-council", "CODE": "EC", "JUR_NAME": "EL CAJON", "NAME": "Michelle Metschel", "PHONE": "(619) 441-1788", "Shape_STAr": 57415734.487000003, "Shape_STLe": 61115.598893000002 }, "geometry": { "type": "Point", "coordinates": [ -116.950737921563046, 32.803391089033667 ] } },
{ "type": "Feature", "properties": { "DISTRICT": 3, "WEBSITE": "https:\/\/www.cityofelcajon.us\/your-government\/elected-officials\/city-council", "CODE": "EC", "JUR_NAME": "EL CAJON", "NAME": "Steve Goble", "PHONE": "(619) 441-1788", "Shape_STAr": 95111068.971599996, "Shape_STLe": 108208.39834 }, "geometry": { "type": "Point", "coordinates": [ -116.922855188438305, 32.800424070613957 ] } },
{ "type": "Feature", "properties": { "DISTRICT": 4, "WEBSITE": "https:\/\/www.ci.oceanside.ca.us\/gov\/council\/default.asp", "CODE": "OC", "JUR_NAME": "OCEANSIDE", "NAME": "Peter Weiss", "PHONE": "(760) 435-3066", "Shape_STAr": 271542644.708, "Shape_STLe": 84478.917650200005 }, "geometry": { "type": "Point", "coordinates": [ -117.293708980067422, 33.223528177298299 ] } },
{ "type": "Feature", "properties": { "DISTRICT": 2, "WEBSITE": "https:\/\/www.ci.oceanside.ca.us\/gov\/council\/default.asp", "CODE": "OC", "JUR_NAME": "OCEANSIDE", "NAME": "Christopher Rodrigue", "PHONE": "(760) 435-3046", "Shape_STAr": 401697075.89, "Shape_STLe": 130409.56471000001 }, "geometry": { "type": "Point", "coordinates": [ -117.287292228716964, 33.260417708450063 ] } },
{ "type": "Feature", "properties": { "DISTRICT": 3, "WEBSITE": "https:\/\/www.ci.oceanside.ca.us\/gov\/council\/default.asp", "CODE": "OC", "JUR_NAME": "OCEANSIDE", "NAME": "Ryan Keim", "PHONE": "(760) 435-3048", "Shape_STAr": 274577248.56, "Shape_STLe": 127117.998362 }, "geometry": { "type": "Point", "coordinates": [ -117.312713776170838, 33.185213128188344 ] } },
{ "type": "Feature", "properties": { "DISTRICT": 1, "WEBSITE": "https:\/\/www.ci.oceanside.ca.us\/gov\/council\/default.asp", "CODE": "OC", "JUR_NAME": "OCEANSIDE", "NAME": "Ester C Sanchez", "PHONE": "(760) 435-3057", "Shape_STAr": 227917587.419, "Shape_STLe": 87930.003934499997 }, "geometry": { "type": "Point", "coordinates": [ -117.35796658511309, 33.210389836043127 ] } },
{ "type": "Feature", "properties": { "DISTRICT": 1, "WEBSITE": "https:\/\/www.carlsbadca.gov\/city-hall\/city-council", "CODE": "CB", "JUR_NAME": "Carlsbad", "NAME": "Vacant", "PHONE": null, "Shape_STAr": 139403873.55199999, "Shape_STLe": 71709.059474399997 }, "geometry": { "type": "Point", "coordinates": [ -117.334152749723231, 33.161871639330251 ] } },
{ "type": "Feature", "properties": { "DISTRICT": 2, "WEBSITE": "https:\/\/www.carlsbadca.gov\/city-hall\/city-council", "CODE": "CB", "JUR_NAME": "Carlsbad", "NAME": "Keith Blackburn", "PHONE": "(760) 420-0279", "Shape_STAr": 475529018.62300003, "Shape_STLe": 163767.06803 }, "geometry": { "type": "Point", "coordinates": [ -117.286817480239307, 33.142415848866726 ] } },
{ "type": "Feature", "properties": { "DISTRICT": 4, "WEBSITE": "https:\/\/www.carlsbadca.gov\/city-hall\/city-council", "CODE": "CB", "JUR_NAME": "Carlsbad", "NAME": "Teresa Acosta", "PHONE": "(442) 200-8748", "Shape_STAr": 246821027.551, "Shape_STLe": 105506.712035 }, "geometry": { "type": "Point", "coordinates": [ -117.257752079362476, 33.08394738266351 ] } },
{ "type": "Feature", "properties": { "DISTRICT": 3, "WEBSITE": "https:\/\/www.carlsbadca.gov\/city-hall\/city-council", "CODE": "CB", "JUR_NAME": "Carlsbad", "NAME": "Priya Bhat-Patel", "PHONE": "(760) 434-2830", "Shape_STAr": 228481074.09599999, "Shape_STLe": 104943.606317 }, "geometry": { "type": "Point", "coordinates": [ -117.273575121785782, 33.108776568623597 ] } },
{ "type": "Feature", "properties": { "DISTRICT": 3, "WEBSITE": "https:\/\/poway.org\/163\/City-Council", "CODE": "PW", "JUR_NAME": "POWAY", "NAME": "John Mullin", "PHONE": "(858) 668-4523", "Shape_STAr": 127864205.8, "Shape_STLe": 60497.573748199997 }, "geometry": { "type": "Point", "coordinates": [ -117.040183641829586, 32.982745197982204 ] } },
{ "type": "Feature", "properties": { "DISTRICT": 1, "WEBSITE": "https:\/\/poway.org\/163\/City-Council", "CODE": "PW", "JUR_NAME": "POWAY", "NAME": "Dave Grosch", "PHONE": "(858) 668-4521", "Shape_STAr": 108778734.07600001, "Shape_STLe": 62239.222440899997 }, "geometry": { "type": "Point", "coordinates": [ -117.061123976863868, 32.966411385012741 ] } },
{ "type": "Feature", "properties": { "DISTRICT": 2, "WEBSITE": "https:\/\/poway.org\/163\/City-Council", "CODE": "PW", "JUR_NAME": "POWAY", "NAME": "Barry Leonard", "PHONE": "(858) 668-452", "Shape_STAr": 663434000.06599998, "Shape_STLe": 188324.82578099999 }, "geometry": { "type": "Point", "coordinates": [ -117.004809795837886, 33.003663951451863 ] } },
{ "type": "Feature", "properties": { "DISTRICT": 4, "WEBSITE": "https:\/\/poway.org\/163\/City-Council", "CODE": "PW", "JUR_NAME": "POWAY", "NAME": "Caylin Frank", "PHONE": "(858) 668-452", "Shape_STAr": 190632991.43399999, "Shape_STLe": 76448.222097200007 }, "geometry": { "type": "Point", "coordinates": [ -117.0365924786405, 32.944534184700473 ] } },
{ "type": "Feature", "properties": { "DISTRICT": 1, "WEBSITE": "https:\/\/cityofsanteeca.gov\/government\/city-council-copy-654", "CODE": "ST", "JUR_NAME": "SANTEE", "NAME": "Rob McNelis", "PHONE": "(619) 258-4100", "Shape_STAr": 144877023.30399999, "Shape_STLe": 63388.399195799997 }, "geometry": { "type": "Point", "coordinates": [ -116.976967128986871, 32.877757667780131 ] } },
{ "type": "Feature", "properties": { "DISTRICT": 2, "WEBSITE": "https:\/\/cityofsanteeca.gov\/government\/city-council-copy-654", "CODE": "ST", "JUR_NAME": "SANTEE", "NAME": "Ronn Hall", "PHONE": "(619) 258-4100", "Shape_STAr": 109329510.21, "Shape_STLe": 61295.803672499998 }, "geometry": { "type": "Point", "coordinates": [ -116.961213555478011, 32.842703790258817 ] } },
{ "type": "Feature", "properties": { "DISTRICT": 3, "WEBSITE": "https:\/\/cityofsanteeca.gov\/government\/city-council-copy-654", "CODE": "ST", "JUR_NAME": "SANTEE", "NAME": "Laura Koval", "PHONE": "(619) 258-4100", "Shape_STAr": 97230098.689899996, "Shape_STLe": 67250.126668900004 }, "geometry": { "type": "Point", "coordinates": [ -117.00525863200248, 32.832275218752841 ] } },
{ "type": "Feature", "properties": { "DISTRICT": 4, "WEBSITE": "https:\/\/cityofsanteeca.gov\/government\/city-council-copy-654", "CODE": "ST", "JUR_NAME": "SANTEE", "NAME": "Dustin Trotter", "PHONE": "(619) 258-4100", "Shape_STAr": 114544089.25, "Shape_STLe": 61063.330770499997 }, "geometry": { "type": "Point", "coordinates": [ -117.001414416343877, 32.859067739324246 ] } },
{ "type": "Feature", "properties": { "DISTRICT": 1, "WEBSITE": "https:\/\/encinitasca.gov\/Government\/Elected-Officials", "CODE": "EN", "JUR_NAME": "ENCINITAS", "NAME": "Tony Kranz", "PHONE": "(760) 633-2623", "Shape_STAr": 136479191.917, "Shape_STLe": 70808.011209000004 }, "geometry": { "type": "Point", "coordinates": [ -117.281023734361227, 33.07078788519118 ] } },
{ "type": "Feature", "properties": { "DISTRICT": 4, "WEBSITE": "https:\/\/encinitasca.gov\/Government\/Elected-Officials", "CODE": "EN", "JUR_NAME": "ENCINITAS", "NAME": "Joe Mosca", "PHONE": "(760) 633-2624", "Shape_STAr": 191355036.259, "Shape_STLe": 115351.440975 }, "geometry": { "type": "Point", "coordinates": [ -117.231351041751125, 33.050094111929248 ] } },
{ "type": "Feature", "properties": { "DISTRICT": 2, "WEBSITE": "https:\/\/encinitasca.gov\/Government\/Elected-Officials", "CODE": "EN", "JUR_NAME": "ENCINITAS", "NAME": "Kellie Hinze", "PHONE": "(760) 633-2622", "Shape_STAr": 80692747.608099997, "Shape_STLe": 42576.5207295 }, "geometry": { "type": "Point", "coordinates": [ -117.286486675207442, 33.049280385574995 ] } },
{ "type": "Feature", "properties": { "DISTRICT": 3, "WEBSITE": "https:\/\/encinitasca.gov\/Government\/Elected-Officials", "CODE": "EN", "JUR_NAME": "ENCINITAS", "NAME": "Joy Lyndes", "PHONE": "(760) 633-2621", "Shape_STAr": 138032784.53099999, "Shape_STLe": 69767.908320500006 }, "geometry": { "type": "Point", "coordinates": [ -117.268218044951695, 33.02592719682994 ] } },
{ "type": "Feature", "properties": { "DISTRICT": 2, "WEBSITE": "https:\/\/www.imperialbeachca.gov\/", "CODE": "IB", "JUR_NAME": "IMPERIAL BEACH", "NAME": null, "PHONE": null, "Shape_STAr": 20615275.178599998, "Shape_STLe": 22244.819709 }, "geometry": { "type": "Point", "coordinates": [ -117.119496777940043, 32.581470309878476 ] } },
{ "type": "Feature", "properties": { "DISTRICT": 1, "WEBSITE": "https:\/\/www.imperialbeachca.gov\/", "CODE": "IB", "JUR_NAME": "IMPERIAL BEACH", "NAME": null, "PHONE": null, "Shape_STAr": 13324501.002499999, "Shape_STLe": 19974.372661500001 }, "geometry": { "type": "Point", "coordinates": [ -117.111780782966818, 32.585233443280188 ] } },
{ "type": "Feature", "properties": { "DISTRICT": 3, "WEBSITE": "https:\/\/www.imperialbeachca.gov\/", "CODE": "IB", "JUR_NAME": "IMPERIAL BEACH", "NAME": null, "PHONE": null, "Shape_STAr": 32660526.6664, "Shape_STLe": 35168.143221799997 }, "geometry": { "type": "Point", "coordinates": [ -117.12528776193912, 32.571072410618925 ] } },
{ "type": "Feature", "properties": { "DISTRICT": 4, "WEBSITE": "https:\/\/www.imperialbeachca.gov\/", "CODE": "IB", "JUR_NAME": "IMPERIAL BEACH", "NAME": null, "PHONE": null, "Shape_STAr": 57061661.127400003, "Shape_STLe": 51552.368004999997 }, "geometry": { "type": "Point", "coordinates": [ -117.115455451397708, 32.559348595871917 ] } },
{ "type": "Feature", "properties": { "DISTRICT": 3, "WEBSITE": "https:\/\/www.chulavistaca.gov\/departments\/mayor-and-council\/district-3", "CODE": "CV", "JUR_NAME": "CHULA VISTA", "NAME": "Stephen C Badilla", "PHONE": "(619) 691-5044", "Shape_STAr": 520538457.79299998, "Shape_STLe": 141351.06905600001 }, "geometry": { "type": "Point", "coordinates": [ -116.984668866672052, 32.611452693355183 ] } },
{ "type": "Feature", "properties": { "DISTRICT": 4, "WEBSITE": "https:\/\/www.chulavistaca.gov\/departments\/mayor-and-council\/district-4", "CODE": "CV", "JUR_NAME": "CHULA VISTA", "NAME": "Andrea Cardenas", "PHONE": "(619) 694-5044", "Shape_STAr": 195012407.52399999, "Shape_STLe": 63700.007216099999 }, "geometry": { "type": "Point", "coordinates": [ -117.0631717226549, 32.60668682873176 ] } },
{ "type": "Feature", "properties": { "DISTRICT": 2, "WEBSITE": "https:\/\/www.chulavistaca.gov\/departments\/mayor-and-council\/district-2-councilmember-galvez", "CODE": "CV", "JUR_NAME": "CHULA VISTA", "NAME": "Jill Galvez", "PHONE": "(619) 691-5177", "Shape_STAr": 301333113.05400002, "Shape_STLe": 112981.968548 }, "geometry": { "type": "Point", "coordinates": [ -117.08426694536827, 32.634335079062197 ] } },
{ "type": "Feature", "properties": { "DISTRICT": 1, "WEBSITE": "https:\/\/www.chulavistaca.gov\/departments\/mayor-and-council\/councilmember-mccann", "CODE": "CV", "JUR_NAME": "CHULA VISTA", "NAME": "John McCann", "PHONE": "(619) 691-5044", "Shape_STAr": 437017452.68900001, "Shape_STLe": 217051.896699 }, "geometry": { "type": "Point", "coordinates": [ -116.979134015864147, 32.653281300054743 ] } },
{ "type": "Feature", "properties": { "DISTRICT": 4, "WEBSITE": "https:\/\/www.cityofvista.com\/city-hall\/city-council", "CODE": "VS", "JUR_NAME": "VISTA", "NAME": "John Franklin", "PHONE": "(760) 689-2220", "Shape_STAr": 189989085.08500001, "Shape_STLe": 117078.97236099999 }, "geometry": { "type": "Point", "coordinates": [ -117.233748936334763, 33.159858793137538 ] } },
{ "type": "Feature", "properties": { "DISTRICT": 1, "WEBSITE": "https:\/\/www.cityofvista.com\/city-hall\/city-council", "CODE": "VS", "JUR_NAME": "VISTA", "NAME": "Corinna Contreras", "PHONE": "(760) 639-6130", "Shape_STAr": 75581048.974399999, "Shape_STLe": 53969.9794969 }, "geometry": { "type": "Point", "coordinates": [ -117.247363799442169, 33.21863203512622 ] } },
{ "type": "Feature", "properties": { "DISTRICT": 2, "WEBSITE": "https:\/\/www.cityofvista.com\/city-hall\/city-council", "CODE": "VS", "JUR_NAME": "VISTA", "NAME": "Joe Green", "PHONE": "(760) 639-6130", "Shape_STAr": 150710856.34, "Shape_STLe": 135202.773713 }, "geometry": { "type": "Point", "coordinates": [ -117.222814673829404, 33.209693654022374 ] } },
{ "type": "Feature", "properties": { "DISTRICT": 3, "WEBSITE": "https:\/\/www.cityofvista.com\/city-hall\/city-council", "CODE": "VS", "JUR_NAME": "VISTA", "NAME": "Katie Melendez", "PHONE": "(760) 639-6130", "Shape_STAr": 106733853.117, "Shape_STLe": 67238.169865100004 }, "geometry": { "type": "Point", "coordinates": [ -117.2630608525714, 33.193896862131318 ] } },
{ "type": "Feature", "properties": { "DISTRICT": 1, "WEBSITE": "https:\/\/www.sandiego.gov\/citycouncil\/cd1\/index.shtml", "CODE": "SD", "JUR_NAME": "SAN DIEGO", "NAME": "Joe LaCava", "PHONE": "(619) 236-6611", "Shape_STAr": 1298054968.8800001, "Shape_STLe": 249481.51715199999 }, "geometry": { "type": "Point", "coordinates": [ -117.223948387624944, 32.905275944439929 ] } },
{ "type": "Feature", "properties": { "DISTRICT": 2, "WEBSITE": "https:\/\/www.sandiego.gov\/citycouncil\/cd2\/index.shtml", "CODE": "SD", "JUR_NAME": "SAN DIEGO", "NAME": "Jennifer Campbell", "PHONE": "(619) 236-6622", "Shape_STAr": 1068169969.48, "Shape_STLe": 235876.64322200001 }, "geometry": { "type": "Point", "coordinates": [ -117.221326458701412, 32.752123279881275 ] } },
{ "type": "Feature", "properties": { "DISTRICT": 3, "WEBSITE": "https:\/\/www.sandiego.gov\/citycouncil\/cd3\/index.shtml", "CODE": "SD", "JUR_NAME": "SAN DIEGO", "NAME": "Stephen Whitburn", "PHONE": "(619) 236-6633", "Shape_STAr": 416385033.79299998, "Shape_STLe": 123627.108763 }, "geometry": { "type": "Point", "coordinates": [ -117.147845623838521, 32.740561303355307 ] } },
{ "type": "Feature", "properties": { "DISTRICT": 4, "WEBSITE": "https:\/\/www.sandiego.gov\/citycouncil\/cd4\/index.shtml", "CODE": "SD", "JUR_NAME": "SAN DIEGO", "NAME": "Monica Montgomery", "PHONE": "(619) 236-6644", "Shape_STAr": 484877570.74299997, "Shape_STLe": 142029.81605200001 }, "geometry": { "type": "Point", "coordinates": [ -117.061832758617513, 32.708050887263369 ] } },
{ "type": "Feature", "properties": { "DISTRICT": 5, "WEBSITE": "https:\/\/www.sandiego.gov\/citycouncil\/cd5\/index.shtml", "CODE": "SD", "JUR_NAME": "SAN DIEGO", "NAME": "Marni Von Wilpert", "PHONE": "(619) 236-6655", "Shape_STAr": 1774685482.6900001, "Shape_STLe": 537515.42170499999 }, "geometry": { "type": "Point", "coordinates": [ -117.072975451824036, 32.999468611874192 ] } },
{ "type": "Feature", "properties": { "DISTRICT": 6, "WEBSITE": "https:\/\/www.sandiego.gov\/citycouncil\/cd6\/index.shtml", "CODE": "SD", "JUR_NAME": "SAN DIEGO", "NAME": "Chris Cate", "PHONE": "(619) 236-6616", "Shape_STAr": 1287823083.29, "Shape_STLe": 207243.78435100001 }, "geometry": { "type": "Point", "coordinates": [ -117.156251005992175, 32.874194333343098 ] } },
{ "type": "Feature", "properties": { "DISTRICT": 7, "WEBSITE": "https:\/\/www.sandiego.gov\/citycouncil\/cd7\/index.shtml", "CODE": "SD", "JUR_NAME": "SAN DIEGO", "NAME": "Raul Campillo", "PHONE": "(619) 236-6677", "Shape_STAr": 1812696415.23, "Shape_STLe": 308572.772406 }, "geometry": { "type": "Point", "coordinates": [ -117.074500575611125, 32.836500755308862 ] } },
{ "type": "Feature", "properties": { "DISTRICT": 8, "WEBSITE": "https:\/\/www.sandiego.gov\/citycouncil\/cd8\/index.shtml", "CODE": "SD", "JUR_NAME": "SAN DIEGO", "NAME": "Vivian Moreno", "PHONE": "(619) 236-6688", "Shape_STAr": 1047852319.88, "Shape_STLe": 324118.1995 }, "geometry": { "type": "Point", "coordinates": [ -117.052457629858381, 32.585875959043605 ] } },
{ "type": "Feature", "properties": { "DISTRICT": 9, "WEBSITE": "https:\/\/www.sandiego.gov\/citycouncil\/cd9\/index.shtml", "CODE": "SD", "JUR_NAME": "SAN DIEGO", "NAME": "Sean Elo-Rivera", "PHONE": "(619) 236-6699", "Shape_STAr": 353204529.287, "Shape_STLe": 129308.315648 }, "geometry": { "type": "Point", "coordinates": [ -117.092070972437966, 32.74682175901016 ] } }
]
}
